[
  {
    "": 0,
    "title": "Administration makes case for emergency Ebola funds #ebola http://t.co/O95M0zN3Xl or http://t.co/y4XQ8SnNrU",
    "pubdate": "11/12/2014 23:15:37",
    "Latitude": 14.436739051913012,
    "Longitude": -1.191508680045405
  },
  {
    "": 1,
    "title": "RT @UmaruFofana: #SierraLeone confirms 94 new #Ebola cases today with 53 in Freetown &amp; environs. It brings to 295 new cases in last 3 days.",
    "pubdate": "11/12/2014 23:15:36",
    "Latitude": 16.015864831532216,
    "Longitude": -1.9345196564539515
  },
  {
    "": 2,
    "title": "Who will pay to stop Ebola?   http://t.co/hOeAMv3cZS  #americanpublic #ebola",
    "pubdate": "11/12/2014 23:15:32",
    "Latitude": 11.454607236827407,
    "Longitude": -8.762842476536196
  },
  {
    "": 3,
    "title": "Administration makes case for emergency Ebola funds #ebola http://t.co/ubM12j56KP",
    "pubdate": "11/12/2014 23:15:24",
    "Latitude": 13.412619710999966,
    "Longitude": -3.6446983693656567
  },
  {
    "": 4,
    "title": "RT @UmaruFofana: #SierraLeone confirms 94 new #Ebola cases today with 53 in Freetown &amp; environs. It brings to 295 new cases in last 3 days.",
    "pubdate": "11/12/2014 23:15:23",
    "Latitude": 13.073565184930924,
    "Longitude": -6.091555737536835
  },
  {
    "": 5,
    "title": "NOW LISTEN TO .@PoliticalJones tkg #Ebola &amp; #PublicHealth w/ .@docgriggs: http://t.co/mWLo4Vg446  http://t.co/43p3fkgWNS",
    "pubdate": "11/12/2014 23:15:21",
    "Latitude": 16.91006149788229,
    "Longitude": -5.576178659147082
  },
  {
    "": 6,
    "title": "#Ebola death toll passes 5,000-mark: WHO",
    "pubdate": "11/12/2014 23:15:20",
    "Latitude": 17.630685391224773,
    "Longitude": -3.2019330136898447
  },
  {
    "": 7,
    "title": "African football latest victim of #Ebola after Morocco expelled from Cup of Nations tournament http://t.co/UahOe1lscZ http://t.co/IuHzjq6DFJ",
    "pubdate": "11/12/2014 23:15:13",
    "Latitude": 16.977850516437126,
    "Longitude": -2.3274970756757796
  },
  {
    "": 8,
    "title": "Kim Kardashian Distracting us from what\\'s really going on... #ebola",
    "pubdate": "11/12/2014 23:15:10",
    "Latitude": 11.61533141737789,
    "Longitude": -4.911453046552091
  },
  {
    "": 9,
    "title": "RT @RT_com: #US nurses strike over insufficient #Ebola protections http://t.co/iCYbZDlQkv http://t.co/CYku6t0gVU",
    "pubdate": "11/12/2014 23:15:02",
    "Latitude": 17.32166700446746,
    "Longitude": -4.168127736785337
  },
  {
    "": 10,
    "title": "RT @LukeRussert: #USA media needs 2 b more concerned w 22 vets committing suicide a day &amp; vet unemployment rate than #Ebola or #MH370 http:‚Ä¶",
    "pubdate": "11/12/2014 23:15:01",
    "Latitude": 18.872068033257026,
    "Longitude": -5.228779544500049
  },
  {
    "": 11,
    "title": "In Wake of #Ebola, Dentist Aims to Keep the Well... Well | #HIPAA #cloud http://t.co/BYHrFZNGNV",
    "pubdate": "11/12/2014 23:14:02",
    "Latitude": 14.770876642541165,
    "Longitude": -4.234968225876553
  },
  {
    "": 12,
    "title": "Mali battles Ebola outbreak as African death toll passes 5,000 #mali #ebola. http://t.co/39ORXIj7KQ",
    "pubdate": "11/12/2014 23:13:50",
    "Latitude": 16.131562573242956,
    "Longitude": -3.418437050309172
  },
  {
    "": 13,
    "title": "RT @Crof: #Ebola in Liberia: New cases in Grand Bassa county http://t.co/v5eSoTxZ09",
    "pubdate": "11/12/2014 23:13:36",
    "Latitude": 16.131643744036385,
    "Longitude": -7.341697943103191
  },
  {
    "": 14,
    "title": "#Ebola outbreak deaths pass 5000 - BBC News http://t.co/u6KfswK3D7",
    "pubdate": "11/12/2014 23:13:31",
    "Latitude": 15.71948955972411,
    "Longitude": -4.346318603262907
  },
  {
    "": 15,
    "title": "RT @AsCorrespondent: UN\\'s Ban Ki-moon calls on Asia to step up #Ebola fight  http://t.co/yH3UkYPXfX  #Asia http://t.co/uv1hXYFXtM",
    "pubdate": "11/12/2014 23:13:24",
    "Latitude": 14.818797220288324,
    "Longitude": -1.9256024000338874
  },
  {
    "": 16,
    "title": "#CDC Covers Up #Ebola Information: http://t.co/LzBPwxSgUV via @YouTube",
    "pubdate": "11/12/2014 23:13:17",
    "Latitude": 14.033782000661287,
    "Longitude": -4.591347202658118
  },
  {
    "": 17,
    "title": "RT @FollowEbola: #Ebola crisis: Mali confirms second death. http://t.co/Z3nUvvefli",
    "pubdate": "11/12/2014 23:13:12",
    "Latitude": 15.286956143732025,
    "Longitude": -3.340082624157026
  },
  {
    "": 18,
    "title": "Who plays a vital role in the care of patients with #Ebola? #Nurses do. http://t.co/nPJQT5OlcD via @rwjf",
    "pubdate": "11/12/2014 23:13:08",
    "Latitude": 15.63093362893715,
    "Longitude": -4.078170874895704
  },
  {
    "": 19,
    "title": "RT @FollowEbola: Bats Link to #Ebola Finally Solved. http://t.co/NsVsBM0486",
    "pubdate": "11/12/2014 23:13:04",
    "Latitude": 16.063516912841784,
    "Longitude": -6.479525162512384
  },
  {
    "": 20,
    "title": "RT @makoto_au_japon: #WHO strives to enhance int\\'l clinics readiness to prevent #Ebola spread - expert http://t.co/DlTVEBMTNj #GCC #Gulf",
    "pubdate": "11/12/2014 23:12:51",
    "Latitude": 15.868879600367038,
    "Longitude": -2.686291360255959
  },
  {
    "": 21,
    "title": "RT @makoto_au_japon: #MSF moves #Ebola preparedness training #online http://t.co/mLMy03Icyi #Africa",
    "pubdate": "11/12/2014 23:12:45",
    "Latitude": 16.65138197834645,
    "Longitude": -4.3909290237148815
  },
  {
    "": 22,
    "title": "RT @makoto_au_japon: The Fight Against #Ebola Could Lead to Surge in #Measles and #Malaria http://t.co/iYXhw6qyP7 #Africa via @vivwalt",
    "pubdate": "11/12/2014 23:12:39",
    "Latitude": 18.77365877712641,
    "Longitude": -3.334155190924209
  },
  {
    "": 23,
    "title": "RT @CHRISTMAS_EVIL: #CometLandingPeople on the moon = hoax.Washing machine on comet = same gag. Spend the money looking for #MH370 an‚Ä¶",
    "pubdate": "11/12/2014 23:12:28",
    "Latitude": 17.608951001763966,
    "Longitude": -4.250642480414916
  },
  {
    "": 24,
    "title": "RT @dulaney_l: Did the U.S. Just Secretly Fly in an #African #Ebola Patient? http://t.co/P3ZdDbp8xp via @po_st  #obama #georgia",
    "pubdate": "11/12/2014 23:12:26",
    "Latitude": 13.125128938420314,
    "Longitude": -4.922536091743579
  },
  {
    "": 25,
    "title": "RT @makoto_au_japon: #Rwanda:Bayingana blasts teams for snubbing #Tour du Rwanda over #Ebola fears http://t.co/ywLflGJtSG #Africa #Cycling ‚Ä¶",
    "pubdate": "11/12/2014 23:12:24",
    "Latitude": 17.73571893336022,
    "Longitude": -4.306979589128096
  },
  {
    "": 26,
    "title": "RT @drmannyonFOX: I\\'ll be on #TheKellyFile tonight at 9PM ET talking about why I think @DrFriedenCDC should step down. #EBOLA",
    "pubdate": "11/12/2014 23:12:19",
    "Latitude": 16.16621978949526,
    "Longitude": -4.591506536571305
  },
  {
    "": 27,
    "title": "RT @makoto_au_japon: #Japan Donates #Ebola Preventive Kit To #Ghana http://t.co/deHXMFwGLB #Africa #donation http://t.co/tJHDuMOdS2",
    "pubdate": "11/12/2014 23:12:14",
    "Latitude": 14.264284565829747,
    "Longitude": -3.5553172321284454
  },
  {
    "": 28,
    "title": "RT @makoto_au_japon: #Japan: #Tokyo Govt Conducts #Ebola Response #Drill http://t.co/5tc8kINGKl #hospital",
    "pubdate": "11/12/2014 23:12:08",
    "Latitude": 16.4893642017748,
    "Longitude": -2.4119637735585897
  },
  {
    "": 29,
    "title": "RT @makoto_au_japon: #Japan: #Tokyo conducts #Ebola #drill http://t.co/265CMMfF1r #hospital",
    "pubdate": "11/12/2014 23:12:03",
    "Latitude": 16.732194066219638,
    "Longitude": -3.8631304893701217
  },
  {
    "": 30,
    "title": "RT @Liberationtech: Deploying Technology in the Fight Against #Ebola http://t.co/DYuOrgI7hk by @drjohnbates",
    "pubdate": "11/12/2014 23:11:59",
    "Latitude": 15.750234470501821,
    "Longitude": -6.128435731282776
  },
  {
    "": 31,
    "title": "RT @RT_com: #US nurses strike over insufficient #Ebola protections http://t.co/iCYbZDlQkv http://t.co/CYku6t0gVU",
    "pubdate": "11/12/2014 23:11:59",
    "Latitude": 12.506637801910108,
    "Longitude": -4.278735193959403
  },
  {
    "": 32,
    "title": "RT @makoto_au_japon: #Samoa to stop incoming flights to prevent #Ebola http://t.co/yeD234Of65 #Africa #travel #guideline",
    "pubdate": "11/12/2014 23:11:57",
    "Latitude": 12.79270868348798,
    "Longitude": -4.347555043536568
  },
  {
    "": 33,
    "title": "RT @makoto_au_japon: #US: #Georgia health officials refuse to name #Ebola hospitals http://t.co/tRZhgBc7RR #hospital",
    "pubdate": "11/12/2014 23:11:50",
    "Latitude": 16.65316885331982,
    "Longitude": -6.741014150299373
  },
  {
    "": 34,
    "title": "#Ebola Lawmakers question Obama&amp;#039;s $6-billion request for Ebola funding   http://t.co/yxN1WGkCYn http://t.co/yg2fQkuHg6",
    "pubdate": "11/12/2014 23:11:45",
    "Latitude": 12.596890764309714,
    "Longitude": -4.699360289983468
  },
  {
    "": 35,
    "title": "RT @makoto_au_japon: #Trinidad &amp; #Tobago: #Ebola treatment centre ready http://t.co/aVZtt79dsY #TT #Caribbean",
    "pubdate": "11/12/2014 23:11:40",
    "Latitude": 18.387864712340544,
    "Longitude": -5.892907610910574
  },
  {
    "": 36,
    "title": "@UNDP providing important fail safe in fight against #Ebola. http://t.co/a0D7Q7QZ8x @UNMEER @DougUNDP @HelenClarkUNDP",
    "pubdate": "11/12/2014 23:11:31",
    "Latitude": 16.75527953764257,
    "Longitude": -3.5992670717272692
  },
  {
    "": 37,
    "title": "RT @makoto_au_japon: #Israel: Watch: Israel sending #Ebola field hospital and staff to #Africa (Video) http://t.co/UqNdcDO8x1",
    "pubdate": "11/12/2014 23:11:29",
    "Latitude": 17.864058884607566,
    "Longitude": -6.9863424557592495
  },
  {
    "": 38,
    "title": "RT @InfoEbola: ‚ÄúYour Blood Tested Positive for #Ebola. I Am Sorry.‚ÄùRead Dr. Ada Ignohoh\\'s story. Posted online by Bill Gates... http://t.‚Ä¶",
    "pubdate": "11/12/2014 23:11:25",
    "Latitude": 18.272431349028555,
    "Longitude": -4.162624503265081
  },
  {
    "": 39,
    "title": "A Poem: On the Arrival of Ebola in New York   http://t.co/lg5zqqrEtd  #ebola #funny #humor via @humortimes",
    "pubdate": "11/12/2014 23:11:19",
    "Latitude": 12.998853265186993,
    "Longitude": -6.5427528285586405
  },
  {
    "": 40,
    "title": "RT @makoto_au_japon: #Kazakhstan: No Kazakhstanis contracted #Ebola #virus in #Africa, MFA http://t.co/JxzKkKAA9K #Kazakh",
    "pubdate": "11/12/2014 23:11:17",
    "Latitude": 16.165209358182707,
    "Longitude": -6.587284771166623
  },
  {
    "": 41,
    "title": "RT @seanparnell: British PM makes #ebola a #G20 priority. Aust PM last week said \\\"I don\\'t think at this stage we want to over-estimate the ‚Ä¶",
    "pubdate": "11/12/2014 23:11:13",
    "Latitude": 19.91343505867812,
    "Longitude": -2.513469420826679
  },
  {
    "": 42,
    "title": "RT @RT_com: #US nurses strike over insufficient #Ebola protections http://t.co/iCYbZDlQkv http://t.co/CYku6t0gVU",
    "pubdate": "11/12/2014 23:11:13",
    "Latitude": 13.559968023447865,
    "Longitude": -7.852336458633423
  },
  {
    "": 43,
    "title": "RT @makoto_au_japon: #Russia to begin testing its #Ebola drugs http://t.co/mi5rIu4IMC #Africa #drug",
    "pubdate": "11/12/2014 23:11:11",
    "Latitude": 14.542952417412462,
    "Longitude": -6.938334298048627
  },
  {
    "": 44,
    "title": "RT @RT_com: #US nurses strike over insufficient #Ebola protections http://t.co/iCYbZDlQkv http://t.co/CYku6t0gVU",
    "pubdate": "11/12/2014 23:11:11",
    "Latitude": 15.040039760923765,
    "Longitude": -5.567630222982357
  },
  {
    "": 45,
    "title": "RT @makoto_au_japon: #APEC leaders determined to jointly fight #Ebola: Xi http://t.co/cJD6HVIAWi #China",
    "pubdate": "11/12/2014 23:10:51",
    "Latitude": 14.850382211393265,
    "Longitude": -5.232879213768379
  },
  {
    "": 46,
    "title": "Good to hear Joe Hockey confirm #Ebola is on the agenda at #G20 - plus this from David Cameron earlier http://t.co/LJCUwU3Air",
    "pubdate": "11/12/2014 23:10:41",
    "Latitude": 21.364769522574825,
    "Longitude": -3.538856295042688
  },
  {
    "": 47,
    "title": "Fran just told me she loved me and she doesn\\'t want anything üòü #EBOLA???",
    "pubdate": "11/12/2014 23:10:25",
    "Latitude": 18.404940922840904,
    "Longitude": -6.510585055785111
  },
  {
    "": 48,
    "title": "RT @kasujja: Africa, the land of simba, Cleopatra...oh and #Ebola! According to @TMZ.  Really? Humour? Ignorance? Indifference? http://t.co‚Ä¶",
    "pubdate": "11/12/2014 23:10:17",
    "Latitude": 15.029965151946273,
    "Longitude": -4.9642678454531675
  },
  {
    "": 49,
    "title": "Deploying Technology in the Fight Against #Ebola http://t.co/DYuOrgI7hk by @drjohnbates",
    "pubdate": "11/12/2014 23:10:13",
    "Latitude": 15.218348582336308,
    "Longitude": -1.5976806894252036
  },
  {
    "": 50,
    "title": "Clinical Care of Two Patients with #Ebola Virus Disease in the United States http://t.co/300NOKkpiy",
    "pubdate": "11/12/2014 23:10:11",
    "Latitude": 15.420012400766128,
    "Longitude": -6.902780459114201
  },
  {
    "": 51,
    "title": "RT @NewsonEbola: #Ebola #EbolaOutbreak Thomas Eric Duncan\\'s Family Reaches \\'Resolution\\' With Dallas Hospital In Ebola Case http://t.co/DIcW‚Ä¶",
    "pubdate": "11/12/2014 23:10:06",
    "Latitude": 15.121995680900728,
    "Longitude": -5.328940042251789
  },
  {
    "": 52,
    "title": "RT @RainaMacIntyre: #Ebola and why it matters - 10 min summary &amp; what you can do @UNSW Alliance against Ebola. http://t.co/SfbP7taVSH  @Joe‚Ä¶",
    "pubdate": "11/12/2014 23:10:00",
    "Latitude": 17.83983650638348,
    "Longitude": -7.3877364425494285
  },
  {
    "": 53,
    "title": "RT @dulaney_l: As If #Ebola Weren\\'t Bad Enough, Here\\'s Another Deadly #Disease Invading America Across The #Border http://t.co/SDvDIy4rzv v‚Ä¶",
    "pubdate": "11/12/2014 23:09:49",
    "Latitude": 14.672894250944903,
    "Longitude": -6.542742058910382
  },
  {
    "": 54,
    "title": "#Ebola season 3 ep13 http://t.co/zwrYpoElgq",
    "pubdate": "11/12/2014 23:09:41",
    "Latitude": 15.652128536699465,
    "Longitude": -5.070170943276503
  },
  {
    "": 55,
    "title": "RT seanparnell: British PM makes #ebola a #G20 priority. Aust PM last week said \\\"I don\\'t think at this stage we want to over-estimate the...",
    "pubdate": "11/12/2014 23:09:39",
    "Latitude": 11.811305190294588,
    "Longitude": -3.4640922761275164
  },
  {
    "": 56,
    "title": "RT @WBUR: As health workers fight to control the #Ebola outbreak, are there lessons from the Boston 1721 smallpox epidemic? http://t.co/hyM‚Ä¶",
    "pubdate": "11/12/2014 23:09:37",
    "Latitude": 16.005666252004698,
    "Longitude": -7.097537362132989
  },
  {
    "": 57,
    "title": "RT @YaThinkN: Thank you @antloewenstein about bloody time #Ebola profiteering at expense of qualified NGO was pointed out :( http://t.co/gp‚Ä¶",
    "pubdate": "11/12/2014 23:09:34",
    "Latitude": 15.67067002144808,
    "Longitude": -5.369256470713021
  },
  {
    "": 58,
    "title": "http://t.co/C92r11cNG8 Rhode Island, US: 15 Being Monitored for #Ebola #Ebola Alerts",
    "pubdate": "11/12/2014 23:09:32",
    "Latitude": 15.369168072720619,
    "Longitude": -2.2017369131321205
  },
  {
    "": 59,
    "title": "RT @RT_com: #US nurses strike over insufficient #Ebola protections http://t.co/iCYbZDlQkv http://t.co/CYku6t0gVU",
    "pubdate": "11/12/2014 23:09:29",
    "Latitude": 14.22578727964093,
    "Longitude": -0.9230997023490612
  },
  {
    "": 60,
    "title": "#Ebola outbreak: deaths exceed 5000, WHO says - CBC.ca http://t.co/x1xemg2kar",
    "pubdate": "11/12/2014 23:09:28",
    "Latitude": 16.66538439752738,
    "Longitude": -3.56169409092504
  },
  {
    "": 61,
    "title": "Family of #ThomasDuncan settles with Dallas hospital #Ebola http://t.co/sU8sUVFwHo http://t.co/SZaOHQxxDH",
    "pubdate": "11/12/2014 23:09:21",
    "Latitude": 16.80701458280625,
    "Longitude": -0.968227962925345
  },
  {
    "": 62,
    "title": "‚Äú@UCSF: Clinician @DanKelly_MD returning from Sierra Leone \\\"more hopeful than ever\\\" that #Ebola will be eradicated http://t.co/0rxdHyOz7H‚Äù",
    "pubdate": "11/12/2014 23:09:16",
    "Latitude": 14.010582874301026,
    "Longitude": -3.765736600272703
  },
  {
    "": 63,
    "title": "RT @NewsonEbola: #Ebola #EbolaOutbreak Thomas Eric Duncan\\'s Family Reaches \\'Resolution\\' With Dallas Hospital In Ebola Case http://t.co/DIcW‚Ä¶",
    "pubdate": "11/12/2014 23:09:16",
    "Latitude": 20.673256415784426,
    "Longitude": -6.546396434538506
  },
  {
    "": 64,
    "title": "RT @LukeRussert: #USA media needs 2 b more concerned w 22 vets committing suicide a day &amp; vet unemployment rate than #Ebola or #MH370 http:‚Ä¶",
    "pubdate": "11/12/2014 23:09:10",
    "Latitude": 14.645600483881534,
    "Longitude": -2.615448096625342
  },
  {
    "": 65,
    "title": "British PM makes #ebola a #G20 priority. Aust PM last week said \\\"I don\\'t think at this stage we want to over-estimate the impact of ebola..\\\",\"British PM makes #ebola a #G20 priority. Aust PM last week said \\\"I don\\'t think at this stage we want to over-estimate the impact of ebola..\\\",\"Twitter for iPad",
    "pubdate": "11/12/2014 23:09:03",
    "Latitude": 19.86025812955785,
    "Longitude": -2.634009981926653
  },
  {
    "": 66,
    "title": "RT @UNMEER: .@UNBanbury tells @UN_Radio: international community must \\\"get ahead\\\" of #Ebola outbreak - http://t.co/dm7RqErtPf http://t.co/F‚Ä¶",
    "pubdate": "11/12/2014 23:08:50",
    "Latitude": 15.199303568680593,
    "Longitude": -5.051320809730482
  },
  {
    "": 67,
    "title": "RT @YourAnonGlobal: #US nurses strike over insufficient #Ebola protections http://t.co/mYv6Aget3r http://t.co/GMGV5KtPVg",
    "pubdate": "11/12/2014 23:08:38",
    "Latitude": 15.803680224125833,
    "Longitude": -3.2367492924873744
  },
  {
    "": 68,
    "title": "RT @SavetheChildren: #Ebola Crisis at a \\\"Tipping Point:\\\" 2.5 Million Children under 5 Live in Affected Areas http://t.co/6Rgwvi5OJw",
    "pubdate": "11/12/2014 23:08:37",
    "Latitude": 17.614614103638406,
    "Longitude": -2.3627887583929454
  },
  {
    "": 69,
    "title": "RT @FollowEbola: Children Are More Likely To Survive #Ebola, And Now Scientists May Know Why. http://t.co/g2kgNbjg4N",
    "pubdate": "11/12/2014 23:08:37",
    "Latitude": 18.552846230702784,
    "Longitude": -4.929070085036922
  },
  {
    "": 70,
    "title": "Via @nprnews: #Ebola In 3-D: A Video #Game To Guide Health Care Workers Through A Ward http://t.co/pmxaIKHH8a #sims",
    "pubdate": "11/12/2014 23:08:36",
    "Latitude": 17.912121490562114,
    "Longitude": -4.278557727128913
  },
  {
    "": 71,
    "title": "Whoop whoop haha #ebola http://t.co/C6LU9CoJLe",
    "pubdate": "11/12/2014 23:08:23",
    "Latitude": 17.88026098597178,
    "Longitude": -2.6325415859269388
  },
  {
    "": 72,
    "title": "How can you help turn the world around &amp; stop our economic collapse? http://t.co/NXOwlbLDeI #GoldOutofHiding#EBOLA #EBOLAANSWERS #ebolaar",
    "pubdate": "11/12/2014 23:08:19",
    "Latitude": 15.400494276115445,
    "Longitude": -4.548971857207114
  },
  {
    "": 73,
    "title": "RT @amaausmed: .@amapresident has urged Govt to consider deploying AUSMAT teams to join fight against #Ebola in west Africa https://t.co/bU‚Ä¶",
    "pubdate": "11/12/2014 23:08:10",
    "Latitude": 16.682580812501744,
    "Longitude": -7.341555187713402
  },
  {
    "": 74,
    "title": "RT @GerardBest: #Ebola death toll tops 5,000--WHO http://t.co/TepwFpmnX2 http://t.co/fqdQfNOUyu",
    "pubdate": "11/12/2014 23:07:51",
    "Latitude": 15.081544187405639,
    "Longitude": -7.264925483346724
  },
  {
    "": 75,
    "title": "RT @kakape: And in other #Ebolanoia news: Morocco is expelled from soccer tournament for refusing to host it due to #Ebola fears http://t.c‚Ä¶",
    "pubdate": "11/12/2014 23:07:51",
    "Latitude": 15.822149901775255,
    "Longitude": -6.101125872981886
  },
  {
    "": 76,
    "title": "RT @Campaign4Action: .@CDCgov issues new #ebola guidelines for emergency departments http://t.co/POIH4G3IDs",
    "pubdate": "11/12/2014 23:07:48",
    "Latitude": 18.903242112224152,
    "Longitude": -3.362080835019138
  },
  {
    "": 77,
    "title": "#Ebola World View: Who Has It and Where #TexasHealthPresbyterian #WhereDuncan http://t.co/Lyx42f3DcI http://t.co/NVgHGynguW",
    "pubdate": "11/12/2014 23:07:38",
    "Latitude": 13.982834890612867,
    "Longitude": -4.383156568166678
  },
  {
    "": 78,
    "title": "RT @PHammondMP: Good to meet @presidentkoroma Impressed at his commitment to keep fighting #Ebola http://t.co/XImMIu9Nt4",
    "pubdate": "11/12/2014 23:07:34",
    "Latitude": 14.97688999876958,
    "Longitude": -3.741607947190125
  },
  {
    "": 79,
    "title": "RT @lajouetreine: #US nurses strike over insufficient #Ebola protections http://t.co/vEwkK2U8p6 http://t.co/UPygTXwkbp",
    "pubdate": "11/12/2014 23:07:30",
    "Latitude": 14.02587617858144,
    "Longitude": -4.724028730107366
  },
  {
    "": 80,
    "title": "Remember #Ebola? It\\'s Still A Huge Problem - Health Care Edge. http://t.co/yeb4borm5a",
    "pubdate": "11/12/2014 23:07:28",
    "Latitude": 12.362546939587538,
    "Longitude": -4.701257772746697
  },
  {
    "": 81,
    "title": "Rage Against the #Ebola Crematorium. http://t.co/RhvUJIIzZ8",
    "pubdate": "11/12/2014 23:07:27",
    "Latitude": 15.081866958913066,
    "Longitude": -5.436139901493909
  },
  {
    "": 82,
    "title": "RT @GeneticLiteracy: Who decides who gets treatments in #Ebola #drug trials? via @Nature http://t.co/O73byneXM2",
    "pubdate": "11/12/2014 23:07:17",
    "Latitude": 15.278790480045425,
    "Longitude": -1.8517807376606608
  },
  {
    "": 83,
    "title": "RT @FluTrackers: #Mali - Reported #ebola case who died was a nurse, 1 other possible health care worker being tested http://t.co/zsU7asO7cm‚Ä¶",
    "pubdate": "11/12/2014 23:07:12",
    "Latitude": 13.319430429027921,
    "Longitude": -0.4996689034111017
  },
  {
    "": 84,
    "title": "RT @SenateApprops Read witness testimony including @SHEA_Epi &amp; other info from today\\'s #Ebola hearing: http://t.co/17QKCKnd1U",
    "pubdate": "11/12/2014 23:07:11",
    "Latitude": 14.880300132766884,
    "Longitude": -5.021536919464715
  },
  {
    "": 85,
    "title": "Yo Everybody Is Getting Sick Dawg üò≥ Thats That #Ebola Creeping up üòï jk.. I hope üò≠ https://t.co/NkEDB0yrIz",
    "pubdate": "11/12/2014 23:07:05",
    "Latitude": 16.286741778059618,
    "Longitude": -6.097910259047211
  },
  {
    "": 86,
    "title": "#KatieHopkins : if #Ebola had a face.",
    "pubdate": "11/12/2014 23:07:03",
    "Latitude": 16.294870665822256,
    "Longitude": -3.8118831585685653
  },
  {
    "": 87,
    "title": "RT @UNICEF: 2014 could be the year progress to end #measles and #malaria slides back. And it‚Äôs because of #Ebola http://t.co/6SgN1ZxQAK via‚Ä¶",
    "pubdate": "11/12/2014 23:07:00",
    "Latitude": 16.666733830656693,
    "Longitude": -4.137902018123355
  },
  {
    "": 88,
    "title": "Remember #Ebola? It\\'s Still A Huge Problem - Health Care Edge. http://t.co/xXHHIeaR6j",
    "pubdate": "11/12/2014 23:07:00",
    "Latitude": 18.10134574097414,
    "Longitude": -3.8681263618670636
  },
  {
    "": 89,
    "title": "Rage Against the #Ebola Crematorium. http://t.co/nai944hpUA",
    "pubdate": "11/12/2014 23:07:00",
    "Latitude": 14.101242890852879,
    "Longitude": -7.033469769011038
  },
  {
    "": 90,
    "title": "#US nurses strike over insufficient #Ebola protections http://t.co/BGsg1jWb2M http://t.co/b16AZiIHrt",
    "pubdate": "11/12/2014 23:06:53",
    "Latitude": 15.509023688754661,
    "Longitude": -2.904118651947077
  },
  {
    "": 91,
    "title": "First @facebook and now @google are asking me for money for #Ebola. What about more relevant diseases?",
    "pubdate": "11/12/2014 23:06:47",
    "Latitude": 19.997687043355306,
    "Longitude": -8.448777661495942
  },
  {
    "": 92,
    "title": "RT @picardonhealth: First Outbreak Quashed, #Ebola Reappears in #Mali  http://t.co/PfzAmGS78Z via @nytimes",
    "pubdate": "11/12/2014 23:06:45",
    "Latitude": 14.689805900885224,
    "Longitude": -2.2147661883580576
  },
  {
    "": 93,
    "title": "RT @RT_com: #US nurses strike over insufficient #Ebola protections http://t.co/iCYbZDlQkv http://t.co/CYku6t0gVU",
    "pubdate": "11/12/2014 23:06:37",
    "Latitude": 14.646293117723651,
    "Longitude": -3.0184036325387997
  },
  {
    "": 94,
    "title": "RT @LukeRussert: #USA media needs 2 b more concerned w 22 vets committing suicide a day &amp; vet unemployment rate than #Ebola or #MH370 http:‚Ä¶",
    "pubdate": "11/12/2014 23:06:24",
    "Latitude": 13.586675348677677,
    "Longitude": -5.112771247239318
  },
  {
    "": 95,
    "title": "#Thomas #Eric Duncans Family Receives Settlementl Over #Ebola #Death - Nov 12 @ 10:06 PM ET http://t.co/WDS21FiQcv",
    "pubdate": "11/12/2014 23:06:18",
    "Latitude": 13.62550809173639,
    "Longitude": -3.9449153949700992
  },
  {
    "": 96,
    "title": "RT @EndTimeHeadline: No district has gone untouched in #SierraLeone, where #Ebola has now been detected in every single area of the... http‚Ä¶",
    "pubdate": "11/12/2014 23:06:15",
    "Latitude": 15.901475999796702,
    "Longitude": -7.46807390330632
  },
  {
    "": 97,
    "title": "RT @MSF_USA: The #MSF team at #Khost maternity hospital in #Afghanistan supports colleagues fighting #Ebola in West Africa: http://t.co/Fxu‚Ä¶",
    "pubdate": "11/12/2014 23:06:14",
    "Latitude": 15.679259632421038,
    "Longitude": -4.447966365540016
  },
  {
    "": 98,
    "title": "Experimental device Hemopurifier from @Aethlon_Medical was used to help treat an #Ebola patient who survived http://t.co/CmjQ8ZzL9l",
    "pubdate": "11/12/2014 23:06:01",
    "Latitude": 15.721825709147243,
    "Longitude": -3.6880671897275796
  },
  {
    "": 99,
    "title": "Good perspective on how to think about treatment:Out of Africa ‚Äî Caring for Patients with #Ebola http://t.co/ClDzhnEM7q",
    "pubdate": "11/12/2014 23:05:34",
    "Latitude": 18.718202821133662,
    "Longitude": -5.33459223226084
  },
  {
    "": 100,
    "title": "RT @NHPRExchange: Tmrw: NH #Ebola protocol w/ @JoseTMontero. Also, @emerrens, @BrighamWomens Dr. Baden, @pattywight. http://t.co/ozhWXc74XA‚Ä¶",
    "pubdate": "11/12/2014 23:05:19",
    "Latitude": 15.019830860490849,
    "Longitude": -4.6227441087436905
  },
  {
    "": 101,
    "title": "Programming &amp; Web Solutions http://t.co/RRAH0RqsaD #ebola http://t.co/hNun1EAbub",
    "pubdate": "11/12/2014 23:05:18",
    "Latitude": 15.301123678565869,
    "Longitude": -2.8381600427478597
  },
  {
    "": 102,
    "title": "Nice report on Partners in Health doctor fighting #Ebola in Sierra Leone on .@NBCNightlyNews. Great org. that could use your #support .@PIH",
    "pubdate": "11/12/2014 23:05:17",
    "Latitude": 16.5415963515266,
    "Longitude": -4.087381028198734
  },
  {
    "": 103,
    "title": "RT @usatodayhealth: Hospital will pay Duncan\\'s medical bills, set up charity http://t.co/4lfQ2Z3Wv2 via @USATODAY #ebola",
    "pubdate": "11/12/2014 23:05:15",
    "Latitude": 16.76137860188921,
    "Longitude": -3.345492400901731
  },
  {
    "": 104,
    "title": "WHO reports 3 more #Ebola cases in #Mali http://t.co/a0rDhlW2Vo",
    "pubdate": "11/12/2014 23:05:08",
    "Latitude": 17.15152518057722,
    "Longitude": -8.100777736683332
  },
  {
    "": 105,
    "title": "RT @amaausmed: .@amapresident has urged Govt to consider deploying AUSMAT teams to join fight against #Ebola in west Africa https://t.co/bU‚Ä¶",
    "pubdate": "11/12/2014 23:04:44",
    "Latitude": 15.151235113657044,
    "Longitude": -3.549861403332265
  },
  {
    "": 106,
    "title": "RT @WhySharksMatter: Hey everyone who was reading #OutbreakChat tweets? You now have #ebola . SURPRISE!",
    "pubdate": "11/12/2014 23:04:40",
    "Latitude": 14.588194524399919,
    "Longitude": -2.3473516916979857
  },
  {
    "": 107,
    "title": "RT @DavidQuammen: @sethmnookin @stevesilberman Thanks, Seth, Steve. Glad to report Ivory Coast calm, sane, so far #Ebola-free. But a story ‚Ä¶",
    "pubdate": "11/12/2014 23:04:38",
    "Latitude": 14.153181177551987,
    "Longitude": -3.2385207722513263
  },
  {
    "": 108,
    "title": "RT @ConservativeGi3: \\\"@SunNewsNetwork: Injectionless #Ebola vaccine successful in monkeys http://t.co/ZhvG5PhRSL\\\",\"RT @ConservativeGi3: \\\"@SunNewsNetwork: Injectionless #Ebola vaccine successful in monkeys http://t.co/ZhvG5PhRSL\\\",\"Twitter for Android",
    "pubdate": "11/12/2014 23:04:13",
    "Latitude": 15.691645625826512,
    "Longitude": -4.975722064272588
  },
  {
    "": 109,
    "title": "#Ebola #EbolaOutbreak Thomas Eric Duncan\\'s Family Reaches \\'Resolution\\' With Dallas Hospital In Ebola Case http://t.co/DIcWjWOUBf",
    "pubdate": "11/12/2014 23:03:54",
    "Latitude": 14.054385464485076,
    "Longitude": -7.792172469497513
  },
  {
    "": 110,
    "title": "RT @LukeRussert: #USA media needs 2 b more concerned w 22 vets committing suicide a day &amp; vet unemployment rate than #Ebola or #MH370 http:‚Ä¶",
    "pubdate": "11/12/2014 23:03:51",
    "Latitude": 14.009249382490344,
    "Longitude": -3.8191179492686778
  },
  {
    "": 111,
    "title": "UK is building six #ebola facilities in Sierra Leone. First run by Save the Children, second by Aspen Medical with up to $20m Aust funding.",
    "pubdate": "11/12/2014 23:03:45",
    "Latitude": 15.24955163416084,
    "Longitude": -3.4645858308678084
  },
  {
    "": 112,
    "title": "Texas: Ebola Victim‚Äôs Family to Be Paid by Hospital, via @nytimes .it can\\'t being back #ThomasEricDuncan back. #Ebola http://t.co/YBBQAUu5Et",
    "pubdate": "11/12/2014 23:03:33",
    "Latitude": 14.935256737987018,
    "Longitude": -3.3479268778773443
  },
  {
    "": 113,
    "title": "RT @EmergencyMgtMag: 5 lessons in crisis communications from the #Ebola response: http://t.co/FgmYLo0BTt",
    "pubdate": "11/12/2014 23:03:32",
    "Latitude": 14.291617338847379,
    "Longitude": -0.7766146110488754
  },
  {
    "": 114,
    "title": "RT @WhySharksMatter: Hey everyone who was reading #OutbreakChat tweets? You now have #ebola . SURPRISE!",
    "pubdate": "11/12/2014 23:03:31",
    "Latitude": 13.933443983062375,
    "Longitude": -4.217621979874432
  },
  {
    "": 115,
    "title": "RT @LukeRussert: #USA media needs 2 b more concerned w 22 vets committing suicide a day &amp; vet unemployment rate than #Ebola or #MH370 http:‚Ä¶",
    "pubdate": "11/12/2014 23:03:28",
    "Latitude": 12.512377787059927,
    "Longitude": -3.5572915471806317
  },
  {
    "": 116,
    "title": "RT @CIDRAP: Senate committee probes proposed US #Ebola funding http://t.co/0kKkX2Nrri",
    "pubdate": "11/12/2014 23:03:11",
    "Latitude": 17.059183265726777,
    "Longitude": -1.1980407070472956
  },
  {
    "": 117,
    "title": "TX #Ebola Victim‚Äôs Family Cashes In After Hospital Settlement. You LIE! Portray urself a Victim Get Paid BHOs America http://t.co/EnuHYVFD7E",
    "pubdate": "11/12/2014 23:03:06",
    "Latitude": 14.902237100931293,
    "Longitude": -4.119899871472809
  },
  {
    "": 118,
    "title": "RT @MarkMobius: #Ebola hasn‚Äôt affected our decision-making process when it comes to investing in Africa or elsewhere. http://t.co/RndtBuBETH",
    "pubdate": "11/12/2014 23:02:46",
    "Latitude": 14.178002462183663,
    "Longitude": -5.286672995186731
  },
  {
    "": 119,
    "title": "RT @YaThinkN: Thank you @antloewenstein about bloody time #Ebola profiteering at expense of qualified NGO was pointed out :( http://t.co/gp‚Ä¶",
    "pubdate": "11/12/2014 23:02:24",
    "Latitude": 13.794658417912249,
    "Longitude": -3.762802866596007
  },
  {
    "": 120,
    "title": "RT @LukeRussert: #USA media needs 2 b more concerned w 22 vets committing suicide a day &amp; vet unemployment rate than #Ebola or #MH370 http:‚Ä¶",
    "pubdate": "11/12/2014 23:02:12",
    "Latitude": 14.618203622450938,
    "Longitude": -4.692380338639216
  },
  {
    "": 121,
    "title": "RT @JermaineWatkins: This: See... I knew #Ebola was a bigger worldwide threat than they admitted at jump. http://t.co/rtKgzXzwjk",
    "pubdate": "11/12/2014 23:02:11",
    "Latitude": 14.015853975879212,
    "Longitude": -4.452271013846462
  },
  {
    "": 122,
    "title": "RT @HazMedSolutions: There were fewer new cases of #Ebola in the week ended Nov. 4 than in any week the prior 3 months. #nytimes graphic ht‚Ä¶",
    "pubdate": "11/12/2014 23:02:06",
    "Latitude": 13.54694804167822,
    "Longitude": -6.090011868485854
  },
  {
    "": 123,
    "title": "How Ebola healthcare workers get dressed http://t.co/RuZrVz1gih #ebola #health #tech #workplace #economy",
    "pubdate": "11/12/2014 23:02:04",
    "Latitude": 13.517423390256592,
    "Longitude": -1.9460339376286102
  },
  {
    "": 124,
    "title": "#US nurses strike over insufficient #Ebola protections http://t.co/vEwkK2U8p6 http://t.co/UPygTXwkbp",
    "pubdate": "11/12/2014 23:01:42",
    "Latitude": 14.877985331492408,
    "Longitude": -6.719505538303187
  },
  {
    "": 125,
    "title": "MSNBC On Moderator In NH Getting Facts Wron  http://t.co/A1If3hUpQm   #ebola #ebola-outbreak #health #breaking",
    "pubdate": "11/12/2014 23:01:38",
    "Latitude": 12.596397192383794,
    "Longitude": -3.629154912833097
  },
  {
    "": 126,
    "title": "RT @LukeRussert: #USA media needs 2 b more concerned w 22 vets committing suicide a day &amp; vet unemployment rate than #Ebola or #MH370 http:‚Ä¶",
    "pubdate": "11/12/2014 23:01:23",
    "Latitude": 15.972963217674247,
    "Longitude": -5.029909084589864
  },
  {
    "": 127,
    "title": "RT @WhySharksMatter: Interesting, some of the symptoms of #Ebola (bleeding from eyes, passing out, vomit) are also symptoms of watching thi‚Ä¶",
    "pubdate": "11/12/2014 23:01:12",
    "Latitude": 14.923137663994412,
    "Longitude": -3.8050464107029316
  },
  {
    "": 128,
    "title": "CDC Disease Detective Describes Chasing Ambulances as Part of #Ebola Response. #virus http://t.co/mUyjgavCzc",
    "pubdate": "11/12/2014 23:01:06",
    "Latitude": 13.860719029125944,
    "Longitude": -3.9610821309313455
  },
  {
    "": 129,
    "title": "Oil Lamps, Mid Terms, and Tasers! New Episode 49! #Election2014 #NFL #NBCBlacklist #Worldseries#RollTide #ebola  http://t.co/IfJdxcL427",
    "pubdate": "11/12/2014 23:01:02",
    "Latitude": 14.772533590101332,
    "Longitude": -6.551738867649128
  },
  {
    "": 130,
    "title": "YES, YES, YES! \\\"@PIH: #DrPaulFarmer\\'s key principles on the #Ebola response: http://t.co/MJiiJ8k3TD http://t.co/1YtOGHcLGw\\\" @Apollos77",
    "pubdate": "11/12/2014 23:00:55",
    "Latitude": 18.07418104537084,
    "Longitude": -3.263213996854041
  },
  {
    "": 131,
    "title": "Hey everyone who was reading #OutbreakChat tweets? You now have #ebola . SURPRISE!",
    "pubdate": "11/12/2014 23:00:54",
    "Latitude": 15.737341969482166,
    "Longitude": -1.8387721963533368
  },
  {
    "": 132,
    "title": "RT @RT_com: #US nurses strike over insufficient #Ebola protections http://t.co/iCYbZDlQkv http://t.co/CYku6t0gVU",
    "pubdate": "11/12/2014 23:00:42",
    "Latitude": 16.72057546874079,
    "Longitude": -3.5801235587169695
  },
  {
    "": 133,
    "title": "RT @WHO: #Mali‚Äôs Ministry of Health has confirmed the country‚Äôs second #Ebola fatal case in a nurse who worked in Bamako http://t.co/oTsqKS‚Ä¶",
    "pubdate": "11/12/2014 23:00:37",
    "Latitude": 17.95317165966177,
    "Longitude": -2.7553116911672477
  },
  {
    "": 134,
    "title": "RT @MarkMobius: #Ebola hasn‚Äôt affected our decision-making process when it comes to investing in Africa or elsewhere. http://t.co/RndtBuBETH",
    "pubdate": "11/12/2014 23:00:25",
    "Latitude": 14.057401721084723,
    "Longitude": -5.452686060234246
  },
  {
    "": 135,
    "title": "RT @Laurie_Garrett: Today @UNDP took over payroll at #Liberia MinHlth. Some got paid for 1st time in 3 mos, but I know 2 #Ebola staff got 1‚Ä¶",
    "pubdate": "11/12/2014 23:00:17",
    "Latitude": 13.949472052510544,
    "Longitude": -5.731790860372975
  },
  {
    "": 136,
    "title": "A company is out of #Ebola-virus stuffed animals after selling \\\"thousands and thousands\\\" of them: http://t.co/bxTXZOWfIh",
    "pubdate": "11/12/2014 23:00:15",
    "Latitude": 15.088816041458491,
    "Longitude": -4.329794595581721
  },
  {
    "": 137,
    "title": "CBS\\' Logan quarantined after Ebola report   http://t.co/rfjFafENJi  #ebola #laralogan #southafrica",
    "pubdate": "11/12/2014 23:00:13",
    "Latitude": 17.673363207569626,
    "Longitude": -2.4845467848929634
  },
  {
    "": 138,
    "title": "Human testing has sparked an ethical debate over how to study unproven medicines amid the #Ebola outbreak. http://t.co/cnHT5R6zxs",
    "pubdate": "11/12/2014 23:00:11",
    "Latitude": 13.342229425428892,
    "Longitude": -5.719672913429719
  },
  {
    "": 139,
    "title": "\\\"@UNICEF: One solution. Meet Aminata, who works at a centre producing chlorine in #Guinea http://t.co/woB3VL2zbq #Ebola\\\" @Apollos77",
    "pubdate": "11/12/2014 23:00:11",
    "Latitude": 16.325000071911937,
    "Longitude": -5.69783347677657
  },
  {
    "": 140,
    "title": "#US doctor released after being cleared of #Ebola   #TNN http://t.co/HBJoF7vMb4",
    "pubdate": "11/12/2014 23:00:04",
    "Latitude": 19.278360768329758,
    "Longitude": -1.1927343069458742
  },
  {
    "": 141,
    "title": ".@amapresident has urged Govt to consider deploying AUSMAT teams to join fight against #Ebola in west Africa https://t.co/bUeKP6cEcd #auspol",
    "pubdate": "11/12/2014 23:00:01",
    "Latitude": 13.618905932517029,
    "Longitude": -0.7759569589839188
  },
  {
    "": 142,
    "title": "RT @GOPTeens: #Teens: Elect a #Republican Senate -- less #American cases of #Ebola.#Coincidence?",
    "pubdate": "11/12/2014 22:59:51",
    "Latitude": 14.959117786545303,
    "Longitude": -1.3879557257706314
  },
  {
    "": 143,
    "title": "They ask you to wear mask at the hospital if you have been out of the country in the past 21 days or if you have a bad cough. #ebola",
    "pubdate": "11/12/2014 22:59:44",
    "Latitude": 13.17359895050901,
    "Longitude": -3.8423055415932548
  },
  {
    "": 144,
    "title": "RT @LukeRussert: #USA media needs 2 b more concerned w 22 vets committing suicide a day &amp; vet unemployment rate than #Ebola or #MH370 http:‚Ä¶",
    "pubdate": "11/12/2014 22:59:20",
    "Latitude": 20.66372291865978,
    "Longitude": -4.105993983367399
  },
  {
    "": 145,
    "title": "RT @LukeRussert: #USA media needs 2 b more concerned w 22 vets committing suicide a day &amp; vet unemployment rate than #Ebola or #MH370 http:‚Ä¶",
    "pubdate": "11/12/2014 22:59:12",
    "Latitude": 17.723235511885857,
    "Longitude": -6.223167189408903
  },
  {
    "": 146,
    "title": "RT @RT_com: #US nurses strike over insufficient #Ebola protections http://t.co/iCYbZDlQkv http://t.co/CYku6t0gVU",
    "pubdate": "11/12/2014 22:59:03",
    "Latitude": 12.105136196028312,
    "Longitude": -7.443997422213952
  },
  {
    "": 147,
    "title": "RT @GOPTeens: #Teens: Elect a #Republican Senate -- less #American cases of #Ebola.#Coincidence?",
    "pubdate": "11/12/2014 22:58:42",
    "Latitude": 16.222333887319454,
    "Longitude": -4.176493358922138
  },
  {
    "": 148,
    "title": "RT @UNinBrussels: #Ebola: @WHO says experimental vaccine trials in West Africa could begin by January http://t.co/ji5kzOaxr9  #EbolaResponse",
    "pubdate": "11/12/2014 22:58:31",
    "Latitude": 15.09275616732298,
    "Longitude": -2.927461530159383
  },
  {
    "": 149,
    "title": "RT @blacklooks: A history of medical killers in #Africa #Ebola #HIV #poison #sterilisation http://t.co/5YMrdH0j86 cc @ducorwriter V/ @afriq‚Ä¶",
    "pubdate": "11/12/2014 22:58:29",
    "Latitude": 15.877944821425418,
    "Longitude": -5.888803217840348
  },
  {
    "": 150,
    "title": "Clinical Care of Two Patients with #Ebola Virus Disease in the United States http://t.co/IBMRuL8C8z",
    "pubdate": "11/12/2014 22:58:17",
    "Latitude": 15.446051867912942,
    "Longitude": -6.159383416520079
  },
  {
    "": 151,
    "title": "RT @RT_com: #US nurses strike over insufficient #Ebola protections http://t.co/iCYbZDlQkv http://t.co/CYku6t0gVU",
    "pubdate": "11/12/2014 22:57:53",
    "Latitude": 17.5813036863643,
    "Longitude": -0.1315894936366595
  },
  {
    "": 152,
    "title": "RT @SavetheChildren: #Ebola Crisis at a \\\"Tipping Point:\\\" 2.5 Million Children under 5 Live in Affected Areas http://t.co/6Rgwvi5OJw",
    "pubdate": "11/12/2014 22:57:37",
    "Latitude": 17.054851346595044,
    "Longitude": -5.948478082800923
  },
  {
    "": 153,
    "title": "As #Ebola takes lives in #Liberia, it leaves hunger in its wake: Sogbondo Raylo carries a‚Ä¶ http://t.co/n6TOJ4ebhQ",
    "pubdate": "11/12/2014 22:57:37",
    "Latitude": 14.878575477317574,
    "Longitude": -6.173445277477262
  },
  {
    "": 154,
    "title": "RT @PHammondMP: Good to meet @presidentkoroma Impressed at his commitment to keep fighting #Ebola http://t.co/XImMIu9Nt4",
    "pubdate": "11/12/2014 22:57:35",
    "Latitude": 16.39763885686026,
    "Longitude": -4.95497537738729
  },
  {
    "": 155,
    "title": "RT @SavetheChildren: #Ebola Crisis at a \\\"Tipping Point:\\\" 2.5 Million Children under 5 Live in Affected Areas http://t.co/6Rgwvi5OJw",
    "pubdate": "11/12/2014 22:57:01",
    "Latitude": 12.941788244697866,
    "Longitude": -2.7021822505008872
  },
  {
    "": 156,
    "title": "US nurses to protest, strike over #Ebola measures | http://t.co/2mlWbxNTWg",
    "pubdate": "11/12/2014 22:57:00",
    "Latitude": 13.718901974858957,
    "Longitude": -1.9660932766536248
  },
  {
    "": 157,
    "title": "RT @jsgaetano: #ImpeachPerry, he won\\'t #SealTheBorders. Plus he let #Ebola into the US! @jhoffman2022",
    "pubdate": "11/12/2014 22:56:51",
    "Latitude": 15.990505300143155,
    "Longitude": -3.6812880364331013
  },
  {
    "": 158,
    "title": "Caught the feelings. #ebola",
    "pubdate": "11/12/2014 22:56:51",
    "Latitude": 19.137491705448394,
    "Longitude": -1.9624494319040893
  },
  {
    "": 159,
    "title": "#Ebola U.S. nurses hold strikes, protests over Ebola measures   http://t.co/EuY2hKT9jP http://t.co/tPIdbSdvDN",
    "pubdate": "11/12/2014 22:56:32",
    "Latitude": 14.11137698846885,
    "Longitude": -2.156901348495982
  },
  {
    "": 160,
    "title": "I\\'m pretty sure it\\'s bad when you cough so hard that you can taste blood. #Ebola  ? üò∑",
    "pubdate": "11/12/2014 22:56:29",
    "Latitude": 12.396434671212377,
    "Longitude": -6.755540881605587
  },
  {
    "": 161,
    "title": "RT @BCNewsWire: #Mali races to contain new #Ebola outbreak as deaths worldwide top 5000 #worldpoli - http://t.co/I64Va8OviA",
    "pubdate": "11/12/2014 22:56:19",
    "Latitude": 13.88625655312383,
    "Longitude": -3.81600331564332
  },
  {
    "": 162,
    "title": "RT @Oritavancin: No evidence the Ebola vaccine causes autism!#autism #aspergers #Psychiatry #healthcare #CDCwhistleblower #ebolahttp://‚Ä¶",
    "pubdate": "11/12/2014 22:56:14",
    "Latitude": 13.494610378092734,
    "Longitude": -6.322483158249501
  },
  {
    "": 163,
    "title": "RT @LukeRussert: #USA media needs 2 b more concerned w 22 vets committing suicide a day &amp; vet unemployment rate than #Ebola or #MH370 http:‚Ä¶",
    "pubdate": "11/12/2014 22:56:06",
    "Latitude": 14.524828305275193,
    "Longitude": -2.982880844372846
  },
  {
    "": 164,
    "title": "RT @neva9257: It‚Äôs been fun/awful playing at #OutbreakChat, but remember: donate to aid orgs working in #Ebola -affected countries http://t‚Ä¶",
    "pubdate": "11/12/2014 22:56:04",
    "Latitude": 12.580160247529534,
    "Longitude": -5.2532227528371305
  },
  {
    "": 165,
    "title": "RT @LukeRussert: #USA media needs 2 b more concerned w 22 vets committing suicide a day &amp; vet unemployment rate than #Ebola or #MH370 http:‚Ä¶",
    "pubdate": "11/12/2014 22:56:00",
    "Latitude": 13.072088827480242,
    "Longitude": -7.163103993962695
  },
  {
    "": 166,
    "title": "RT @GOPTeens: #Teens: Elect a #Republican Senate -- less #American cases of #Ebola.#Coincidence?",
    "pubdate": "11/12/2014 22:55:57",
    "Latitude": 15.836013674109529,
    "Longitude": -4.043135716433767
  },
  {
    "": 167,
    "title": "Fox News says fighting Ebola is a \\'boondoggle\\' - http://t.co/VA4yCH5ll9 #ebola",
    "pubdate": "11/12/2014 22:55:32",
    "Latitude": 15.888011009914829,
    "Longitude": -2.7963924577960793
  },
  {
    "": 168,
    "title": "20000 California Nurses Go On Strike - Ebola Fears - http://t.co/t1onpv0RmZ #ebola",
    "pubdate": "11/12/2014 22:55:31",
    "Latitude": 14.366628332140102,
    "Longitude": -7.305464448996258
  },
  {
    "": 169,
    "title": "RT @Barbi_Twins: Hendry Co defends #monkey breeding lab negligence including #Ebola-Typical&gt;govt protects biz over bodies @JVM @ALDF http:/‚Ä¶",
    "pubdate": "11/12/2014 22:55:21",
    "Latitude": 13.365956638725416,
    "Longitude": -4.446880229920568
  },
  {
    "": 170,
    "title": "RT @blacklooks: A history of medical killers in #Africa #Ebola #HIV #poison #sterilisation http://t.co/5YMrdH0j86 cc @ducorwriter V/ @afriq‚Ä¶",
    "pubdate": "11/12/2014 22:55:16",
    "Latitude": 19.027262021605765,
    "Longitude": -5.111943518726717
  },
  {
    "": 171,
    "title": "Pregnant women in #Liberia at inc. risk of complications and death due to fear of #ebola http://t.co/rhkvzqUUiy",
    "pubdate": "11/12/2014 22:55:09",
    "Latitude": 16.035901084129033,
    "Longitude": -3.641846219424018
  },
  {
    "": 172,
    "title": "RT @Laurie_Garrett: Today @UNDP took over payroll at #Liberia MinHlth. Some got paid for 1st time in 3 mos, but I know 2 #Ebola staff got 1‚Ä¶",
    "pubdate": "11/12/2014 22:54:57",
    "Latitude": 15.610980415069466,
    "Longitude": -7.90393736267155
  },
  {
    "": 173,
    "title": "RT @GSK: ‚ÄòThe fight against #Ebola needs big pharma on board‚Äô @wellcometrust article in @FT: http://t.co/Nt9n5qB9ZU (subscription req.)",
    "pubdate": "11/12/2014 22:54:41",
    "Latitude": 14.419702435850413,
    "Longitude": -5.989314094344787
  },
  {
    "": 174,
    "title": "We\\'re so bad at assessing real risküòå. #Ebola http://t.co/4smn08BTYw @hp_ems",
    "pubdate": "11/12/2014 22:54:41",
    "Latitude": 15.374911529156652,
    "Longitude": -0.43501421814641583
  },
  {
    "": 175,
    "title": "RT @SavetheChildren: #Ebola Crisis at a \\\"Tipping Point:\\\" 2.5 Million Children under 5 Live in Affected Areas http://t.co/6Rgwvi5OJw",
    "pubdate": "11/12/2014 22:54:40",
    "Latitude": 14.841590677037821,
    "Longitude": -1.9112331287392315
  },
  {
    "": 176,
    "title": "RT @GOPTeens: #Teens: Elect a #Republican Senate -- less #American cases of #Ebola.#Coincidence?",
    "pubdate": "11/12/2014 22:54:37",
    "Latitude": 11.976997344847181,
    "Longitude": -9.087743407826704
  },
  {
    "": 177,
    "title": "@bfrist Fmr. Senator Bill Frist makes the case for us to stay on the offensive re: #Ebola #EbolaCrisis #publichealth http://t.co/YSrv0yFU1T",
    "pubdate": "11/12/2014 22:54:35",
    "Latitude": 14.224804742277323,
    "Longitude": -2.472664330366357
  },
  {
    "": 178,
    "title": "brother @RobertBornAgain #Ebola is a lie as well. it‚Äôs all a part of bringing #agenda21 to the forefront. the RFID chips will be here TBC",
    "pubdate": "11/12/2014 22:54:34",
    "Latitude": 14.785484780434313,
    "Longitude": -4.437789071969917
  },
  {
    "": 179,
    "title": "Does an #Ebola Outbreak Trump the #HIPAA #Privacy Rule? http://t.co/sRPjLFhusK",
    "pubdate": "11/12/2014 22:54:09",
    "Latitude": 18.638168593615706,
    "Longitude": -3.237027202025859
  },
  {
    "": 180,
    "title": "RT @whittington_amy: #climatechange and #Ebola to be discussed but only part of agenda @JoeHockey @TheSourceNews1",
    "pubdate": "11/12/2014 22:54:05",
    "Latitude": 17.38738039595615,
    "Longitude": -4.376679981622263
  },
  {
    "": 181,
    "title": "RT @wessmith123: The U.S. is now #Ebola Free! Fox must be FREAKING OUT! #UniteBlue #TNTweeters #LibCrib http://t.co/GmjcPnGgid http://t.co/‚Ä¶",
    "pubdate": "11/12/2014 22:54:02",
    "Latitude": 13.162917987673062,
    "Longitude": -2.5828494146395067
  },
  {
    "": 182,
    "title": "RT @neva9257: It‚Äôs been fun/awful playing at #OutbreakChat, but remember: donate to aid orgs working in #Ebola -affected countries http://t‚Ä¶",
    "pubdate": "11/12/2014 22:54:00",
    "Latitude": 12.427405910252542,
    "Longitude": -5.785328963742426
  },
  {
    "": 183,
    "title": "#climatechange and #Ebola to be discussed but only part of agenda @JoeHockey @TheSourceNews1",
    "pubdate": "11/12/2014 22:53:48",
    "Latitude": 16.528168996988853,
    "Longitude": -4.5032561163141995
  },
  {
    "": 184,
    "title": "RT @McCarthyism101: #Ebola is our beautiful creation.A Frankenstein we deliberately let loose from our laboratories. Our #Agenda21! Now suc‚Ä¶",
    "pubdate": "11/12/2014 22:53:44",
    "Latitude": 14.056014078488982,
    "Longitude": -4.135682503273378
  },
  {
    "": 185,
    "title": "@dancapper it‚Äôs more a comment on the fascination with experimental treatments in the #Ebola outbreak. @WhySharksMatter",
    "pubdate": "11/12/2014 22:53:43",
    "Latitude": 12.191142069187464,
    "Longitude": -5.553840471950222
  },
  {
    "": 186,
    "title": "How #Africa And Africans Are Responding To The #Ebola Crisis #liberia #epidemiology http://t.co/ioKVeFjTYr",
    "pubdate": "11/12/2014 22:53:32",
    "Latitude": 13.364456901175469,
    "Longitude": -5.534413918691062
  },
  {
    "": 187,
    "title": "RT @GlobalGenes: BREAKING NEWS! Twins with rare genetic disorder could hold clue to cure for #Ebola http://t.co/gtxRjG9Ol9 @HempelFamily #N‚Ä¶",
    "pubdate": "11/12/2014 22:53:15",
    "Latitude": 15.270916804080771,
    "Longitude": -5.87274880257337
  },
  {
    "": 188,
    "title": "RT @JohnFarrier: Wow... For every $1 you donate to fight #Ebola, @Google will donate $2: https://t.co/eo4K9xRl5K",
    "pubdate": "11/12/2014 22:53:09",
    "Latitude": 14.77267228600218,
    "Longitude": 0.6132437501195547
  },
  {
    "": 189,
    "title": "RT @neva9257: It‚Äôs been fun/awful playing at #OutbreakChat, but remember: donate to aid orgs working in #Ebola -affected countries http://t‚Ä¶",
    "pubdate": "11/12/2014 22:53:03",
    "Latitude": 13.236777799545191,
    "Longitude": -5.0454653708703505
  },
  {
    "": 190,
    "title": "RT @wef: What #economics can teach us about the spread of #Ebola http://t.co/OukaYQJg2R http://t.co/VQ6VQZGQyU",
    "pubdate": "11/12/2014 22:53:02",
    "Latitude": 16.191669990935985,
    "Longitude": -6.5686753827234
  },
  {
    "": 191,
    "title": "@rotary spoke to The Rotary Club of Atlantic City about #Ebola http://t.co/Zj9JiAZ17h",
    "pubdate": "11/12/2014 22:52:56",
    "Latitude": 16.16371887950241,
    "Longitude": -5.001758380926338
  },
  {
    "": 192,
    "title": "RT @archithFox46: Find out what\\'s being done to honor the 1st US patient who died from the #Ebola virus at 10 #charlotte #clt @myfoxdfw htt‚Ä¶",
    "pubdate": "11/12/2014 22:52:55",
    "Latitude": 16.257289477249003,
    "Longitude": -6.0039647687999045
  },
  {
    "": 193,
    "title": "RT @archithFox46: Find out what\\'s being done to honor the 1st US patient who died from the #Ebola virus at 10 #charlotte #clt @myfoxdfw htt‚Ä¶",
    "pubdate": "11/12/2014 22:52:55",
    "Latitude": 16.63811297532745,
    "Longitude": -0.7824569584996461
  },
  {
    "": 194,
    "title": "Online Homeland security: #Guinea - #Ebola #Virus #Disease http://t.co/1vbSeJfFyM",
    "pubdate": "11/12/2014 22:52:53",
    "Latitude": 17.82737955671271,
    "Longitude": -4.245636680286951
  },
  {
    "": 195,
    "title": "RT jsgaetano: #ImpeachPerry, he won\\'t #SealTheBorders. Plus he let #Ebola into the US! jhoffman2022",
    "pubdate": "11/12/2014 22:52:49",
    "Latitude": 13.320841662042607,
    "Longitude": -5.353047141781641
  },
  {
    "": 196,
    "title": "RT @ArdenBarry: Perspective: #Ebola is rampant in west Africa while American scientists are busy discovering the \\\"stupidity\\\" virus: http://‚Ä¶",
    "pubdate": "11/12/2014 22:52:48",
    "Latitude": 16.202762152086493,
    "Longitude": 0.21227010578502803
  },
  {
    "": 197,
    "title": "RT BreLink_12: RT _autumnbree: The real suspect in question is Cady Heron #MeanGirls #Ebola #TwitterJoke https://t.co/Ta7OM7UW0A",
    "pubdate": "11/12/2014 22:52:46",
    "Latitude": 14.751581568445463,
    "Longitude": -6.090311467388865
  },
  {
    "": 198,
    "title": "I\\'m Tumblin\\' to: http://t.co/BzMWRvGVu4#Ebola http://t.co/7pmP7LapI9",
    "pubdate": "11/12/2014 22:52:45",
    "Latitude": 14.68065031671152,
    "Longitude": -0.08014866732666981
  },
  {
    "": 199,
    "title": "RT @RT_com: #US nurses strike over insufficient #Ebola protections http://t.co/iCYbZDlQkv http://t.co/CYku6t0gVU",
    "pubdate": "11/12/2014 22:52:43",
    "Latitude": 16.547533828402265,
    "Longitude": -6.2625066535681455
  },
  {
    "": 200,
    "title": "2014 #Ebola Outbreak in West #Africa @CDCgov http://t.co/3IAHxPjTC1 | Condolences to all those who lost loved ones http://t.co/DcbyKqaDzm",
    "pubdate": "11/12/2014 22:52:42",
    "Latitude": 15.972176291858087,
    "Longitude": -5.918499404815536
  },
  {
    "": 201,
    "title": "http://t.co/CVJbFdXUNu Planning a vacay? The UN highly Recommends these Premier #Ebola Destinations #Other Pandemic News",
    "pubdate": "11/12/2014 22:52:41",
    "Latitude": 15.990850572520698,
    "Longitude": -7.247281397905056
  },
  {
    "": 202,
    "title": "RT @neva9257: It‚Äôs been fun/awful playing at #OutbreakChat, but remember: donate to aid orgs working in #Ebola -affected countries http://t‚Ä¶",
    "pubdate": "11/12/2014 22:52:39",
    "Latitude": 13.651925103434722,
    "Longitude": -4.621052109106971
  },
  {
    "": 203,
    "title": "@NealHandel @GRMediaFirm @radar_online Time to stop gawking at the Kardashians and get to work on #Ebola and a #cleansexlife.",
    "pubdate": "11/12/2014 22:52:38",
    "Latitude": 11.357823627820434,
    "Longitude": -3.231687471885923
  },
  {
    "": 204,
    "title": "RT neva9257: It‚Äôs been fun/awful playing at #OutbreakChat, but remember: donate to aid orgs working in #Ebola -a... http://t.co/zGetRYEZhv",
    "pubdate": "11/12/2014 22:52:37",
    "Latitude": 15.553831744681474,
    "Longitude": -1.7227687031333208
  },
  {
    "": 205,
    "title": "RT @healthmap: ICYMI! Highlights of most recent @WHO #Ebola SitRep live at: http://t.co/0BC5W86Fv3 - 4 deaths in #Mali, 421 new cases in #S‚Ä¶",
    "pubdate": "11/12/2014 22:52:30",
    "Latitude": 12.344659171890084,
    "Longitude": -4.754184332046291
  },
  {
    "": 206,
    "title": "@CBS\\' #LaraLogan Self-Quarantines Following Trip To #Liberia - http://t.co/O0qTg2s3ut #Ebola",
    "pubdate": "11/12/2014 22:52:25",
    "Latitude": 18.157851281832574,
    "Longitude": -7.989535673589838
  },
  {
    "": 207,
    "title": "RT @picardonhealth: First Outbreak Quashed, #Ebola Reappears in #Mali  http://t.co/PfzAmGS78Z via @nytimes",
    "pubdate": "11/12/2014 22:52:22",
    "Latitude": 18.770735576609887,
    "Longitude": -2.88266645542977
  },
  {
    "": 208,
    "title": "Les Roberts ‚Äì ‚ÄúDay 39: The plural of anecdote is not data‚Äù #Ebola http://t.co/BDLWSDxPQ9 http://t.co/P4qlBYj8bc",
    "pubdate": "11/12/2014 22:52:21",
    "Latitude": 14.193892169332353,
    "Longitude": -2.7619212302287073
  },
  {
    "": 209,
    "title": "#ImpeachPerry, he won\\'t #SealTheBorders. Plus he let #Ebola into the US! @jhoffman2022",
    "pubdate": "11/12/2014 22:52:10",
    "Latitude": 17.02934376079798,
    "Longitude": -0.8164500825669951
  },
  {
    "": 210,
    "title": "RT @_autumnbree: The real suspect in question is Cady Heron #MeanGirls #Ebola #TwitterJoke https://t.co/KYreJqQAuj",
    "pubdate": "11/12/2014 22:52:07",
    "Latitude": 18.495468759420977,
    "Longitude": -3.923091046441012
  },
  {
    "": 211,
    "title": "It‚Äôs been fun/awful playing at #OutbreakChat, but remember: donate to aid orgs working in #Ebola -affected countries http://t.co/MpKWDaqegz",
    "pubdate": "11/12/2014 22:51:58",
    "Latitude": 13.658856716926602,
    "Longitude": -2.0902380366118747
  },
  {
    "": 212,
    "title": "RT @tarahaelle: And remember, IRL the actual #Ebola outbreak is no joke. Three more cases in Mali. http://t.co/9BFHt5mV2X #OutbreakChat",
    "pubdate": "11/12/2014 22:51:42",
    "Latitude": 15.842059860729377,
    "Longitude": -6.883549986723834
  },
  {
    "": 213,
    "title": "RT @WHO: #Mali‚Äôs Ministry of Health has confirmed the country‚Äôs second #Ebola fatal case in a nurse who worked in Bamako http://t.co/oTsqKS‚Ä¶",
    "pubdate": "11/12/2014 22:51:23",
    "Latitude": 13.657655711153819,
    "Longitude": -5.104166922782608
  },
  {
    "": 214,
    "title": "RT @ONECampaign: NEWS: More than 14,000 #Ebola cases (including 4 now confirmed in Mali) &amp; more than 5,100 deaths http://t.co/WWxHYheIOS vi‚Ä¶",
    "pubdate": "11/12/2014 22:51:19",
    "Latitude": 15.153340077919031,
    "Longitude": -6.801395664812554
  },
  {
    "": 215,
    "title": "I\\'m Tumblin\\' to: http://t.co/BzMWRvGVu4#ebola",
    "pubdate": "11/12/2014 22:51:16",
    "Latitude": 15.666032050810937,
    "Longitude": -6.2098561049302665
  },
  {
    "": 216,
    "title": "DRC: #Ebola Virus Disease DREF Operation n¬∞ MDRCD015 Operations update n¬∞ 1 http://t.co/tWW7aPnJXp via @reliefweb #DRC",
    "pubdate": "11/12/2014 22:51:15",
    "Latitude": 16.240761135816395,
    "Longitude": -2.8000882956515056
  },
  {
    "": 217,
    "title": "RT @buissonnierem: ‚Äú@MSF: Any questions about #Ebola? Sign up for #MSF\\'s new e-learning platform about the virus http://t.co/WD2kxGESBA htt‚Ä¶",
    "pubdate": "11/12/2014 22:51:13",
    "Latitude": 16.486353149114997,
    "Longitude": -1.9616453998008518
  },
  {
    "": 218,
    "title": "RT @theIRC: From the front lines of the #Ebola crisis, a photo essay by @Peter_Biro on @dailybeast: http://t.co/JIpvAMs6Qb http://t.co/4GtE‚Ä¶",
    "pubdate": "11/12/2014 22:51:12",
    "Latitude": 16.096518506089,
    "Longitude": -3.9958271140676453
  },
  {
    "": 219,
    "title": "#HHS #Secretary #asks #agency #to #welcome #back #colleagues #returning #from #Ebola ‚Ä¶: Health and Human Services‚Ä¶ http://t.co/KveAB5c5u0",
    "pubdate": "11/12/2014 22:51:10",
    "Latitude": 14.68492469224865,
    "Longitude": -6.966858576108356
  },
  {
    "": 220,
    "title": "So it\\'s official, right? #Elections cure #Ebola.",
    "pubdate": "11/12/2014 22:51:08",
    "Latitude": 13.211388756974287,
    "Longitude": -2.4841118366224366
  },
  {
    "": 221,
    "title": "RT @tarahaelle: And remember, IRL the actual #Ebola outbreak is no joke. Three more cases in Mali. http://t.co/9BFHt5mV2X #OutbreakChat",
    "pubdate": "11/12/2014 22:51:06",
    "Latitude": 15.062368822265476,
    "Longitude": -3.8052648823007416
  },
  {
    "": 222,
    "title": "RT @PeterSinger: My latest Project Syndicate column is on #Ebola, our research priorities &amp; the #ethics of developing a new treatment http:‚Ä¶",
    "pubdate": "11/12/2014 22:50:55",
    "Latitude": 14.365423556069452,
    "Longitude": -3.6511195726161203
  },
  {
    "": 223,
    "title": "Online Homeland security: #Guinea - #Ebola #Virus #Disease http://t.co/nD7xXEP1wO",
    "pubdate": "11/12/2014 22:50:45",
    "Latitude": 14.023392430651711,
    "Longitude": -1.3015948305829057
  },
  {
    "": 224,
    "title": "RT @tarahaelle: And remember, IRL the actual #Ebola outbreak is no joke. Three more cases in Mali. http://t.co/9BFHt5mV2X #OutbreakChat",
    "pubdate": "11/12/2014 22:50:44",
    "Latitude": 13.740270347657171,
    "Longitude": -2.6017777171436283
  },
  {
    "": 225,
    "title": "The real suspect in question is Cady Heron #MeanGirls #Ebola #TwitterJoke https://t.co/KYreJqQAuj",
    "pubdate": "11/12/2014 22:50:37",
    "Latitude": 14.984371333353861,
    "Longitude": -3.9679787337831893
  },
  {
    "": 226,
    "title": "RT @LukeRussert: #USA media needs 2 b more concerned w 22 vets committing suicide a day &amp; vet unemployment rate than #Ebola or #MH370 http:‚Ä¶",
    "pubdate": "11/12/2014 22:50:33",
    "Latitude": 16.400642981798985,
    "Longitude": -6.671323408407265
  },
  {
    "": 227,
    "title": "RT @LukeRussert: #USA media needs 2 b more concerned w 22 vets committing suicide a day &amp; vet unemployment rate than #Ebola or #MH370 http:‚Ä¶",
    "pubdate": "11/12/2014 22:50:32",
    "Latitude": 16.136031092630695,
    "Longitude": -1.7793970213928638
  },
  {
    "": 228,
    "title": "And remember, IRL the actual #Ebola outbreak is no joke. Three more cases in Mali. http://t.co/9BFHt5mV2X #OutbreakChat",
    "pubdate": "11/12/2014 22:50:31",
    "Latitude": 11.193922331624496,
    "Longitude": -5.911236692164149
  },
  {
    "": 229,
    "title": "the #Ebola #outbreak only shows how poor the #healthcare system is in #Guinea . Now there\\'s some #motivation for a #publichealth #degree",
    "pubdate": "11/12/2014 22:50:26",
    "Latitude": 19.878058564587686,
    "Longitude": -4.144678157507444
  },
  {
    "": 230,
    "title": "RT @theOFDA: Big issue in #Ebola response is personal protective equip. @USAID launched grand challenge to make PPE safer http://t.co/Q5P4A‚Ä¶",
    "pubdate": "11/12/2014 22:50:25",
    "Latitude": 15.748741390954196,
    "Longitude": -4.033341564329482
  },
  {
    "": 231,
    "title": "Find out what\\'s being done to honor the 1st US patient (Thomas Eric Duncan) who died from the #Ebola virus in 10 mins #charlotte #clt @FOX4",
    "pubdate": "11/12/2014 22:50:22",
    "Latitude": 15.229309205701036,
    "Longitude": -4.12686875856749
  },
  {
    "": 232,
    "title": "@MSNBC\\'s Chris Hayes Rips Media ( @FoxNews @CNN)  For Fearmongering Concerning #Ebola - http://t.co/DWvFyDHkFu #UniteBlue @UniteBlue",
    "pubdate": "11/12/2014 22:50:20",
    "Latitude": 15.81283350842407,
    "Longitude": -1.5584007547384782
  },
  {
    "": 233,
    "title": "Clinician @DanKelly_MD returning from Sierra Leone \\\"more hopeful than ever\\\" that #Ebola will be eradicated http://t.co/LPxCjPJs0G via @UCSF",
    "pubdate": "11/12/2014 22:50:16",
    "Latitude": 14.115279100981276,
    "Longitude": -7.212522643177934
  },
  {
    "": 234,
    "title": "RT @ONEgirlswomen: MUST read: One in 7 women risk dying in childbirth in #Ebola-hit countries http://t.co/i7fSNOFgzG via @ReutersAfrica",
    "pubdate": "11/12/2014 22:50:14",
    "Latitude": 15.495202860795164,
    "Longitude": -4.365684671251323
  },
  {
    "": 235,
    "title": "RT @picardonhealth: First Outbreak Quashed, #Ebola Reappears in #Mali  http://t.co/PfzAmGS78Z via @nytimes",
    "pubdate": "11/12/2014 22:50:10",
    "Latitude": 16.247423337955137,
    "Longitude": -3.8435636912628635
  },
  {
    "": 236,
    "title": "RT @YaThinkN: Thank you @antloewenstein about bloody time #Ebola profiteering at expense of qualified NGO was pointed out :( http://t.co/gp‚Ä¶",
    "pubdate": "11/12/2014 22:50:06",
    "Latitude": 14.394494138758962,
    "Longitude": -0.2518969481926536
  },
  {
    "": 237,
    "title": "\\\"The End of #Racism\\\" http://t.co/50VHEHlS7o  #islam #Africa #Ebola #uk #USA #Christ #Nigeria #bible #jesus",
    "pubdate": "11/12/2014 22:50:05",
    "Latitude": 16.02785563575063,
    "Longitude": -4.593210822685647
  },
  {
    "": 238,
    "title": "RT @GOPTeens: #Teens: Elect a #Republican Senate -- less #American cases of #Ebola.#Coincidence?",
    "pubdate": "11/12/2014 22:50:04",
    "Latitude": 13.794663576003419,
    "Longitude": -6.887523553476825
  },
  {
    "": 239,
    "title": "RT @LukeRussert: #USA media needs 2 b more concerned w 22 vets committing suicide a day &amp; vet unemployment rate than #Ebola or #MH370 http:‚Ä¶",
    "pubdate": "11/12/2014 22:50:03",
    "Latitude": 14.533860769166116,
    "Longitude": -6.369917861384723
  },
  {
    "": 240,
    "title": "RT @SusanWojcicki: Google matches $2 for every $1 donated in the fight against Ebola. Join the fight! #Ebola http://t.co/B8DLzqFLv4)",
    "pubdate": "11/12/2014 22:50:02",
    "Latitude": 14.322941352483646,
    "Longitude": -8.730095764970002
  },
  {
    "": 241,
    "title": "Exploring This Season‚Äôs Continuity Experiment On #SouthPark http://t.co/mWgj3MSaaw via @UPROXX #Redskins #Ebola #Lorde #Freemium #TVbiz",
    "pubdate": "11/12/2014 22:50:01",
    "Latitude": 13.16849237291612,
    "Longitude": -5.042939896637514
  },
  {
    "": 242,
    "title": "Ask #G20 to stop companies #taxdodging NOW so poor countries can invest in healthcare! #TaxPower http://t.co/CpbX5V6Bzx #Ebola",
    "pubdate": "11/12/2014 22:49:48",
    "Latitude": 15.012901654499204,
    "Longitude": -1.0165801360044298
  },
  {
    "": 243,
    "title": "Top #US Officials ask #Congress 4 help 2 the tune of 6.2B for the fight against #Ebola http://t.co/a7swyPA3xk via @YahooNews",
    "pubdate": "11/12/2014 22:49:41",
    "Latitude": 17.76521010596914,
    "Longitude": 0.5882309776317296
  },
  {
    "": 244,
    "title": "RT @RT_com: #US nurses strike over insufficient #Ebola protections http://t.co/iCYbZDlQkv http://t.co/CYku6t0gVU",
    "pubdate": "11/12/2014 22:49:35",
    "Latitude": 14.79827952919739,
    "Longitude": -2.6949422427319147
  },
  {
    "": 245,
    "title": "RT @nancylindborg: In fight against #Ebola, we MUST stay flexible &amp; agile - As @JeremyKonyndyk says  - we can\\'t take foot off gas pedal. ht‚Ä¶",
    "pubdate": "11/12/2014 22:49:33",
    "Latitude": 14.280974833023876,
    "Longitude": -0.06476824470994647
  },
  {
    "": 246,
    "title": "RT @LukeRussert: #USA media needs 2 b more concerned w 22 vets committing suicide a day &amp; vet unemployment rate than #Ebola or #MH370 http:‚Ä¶",
    "pubdate": "11/12/2014 22:49:31",
    "Latitude": 16.446532455237744,
    "Longitude": -5.796832222505275
  },
  {
    "": 247,
    "title": "RT @CDCgov: #CDCintheField from Jana: Presenting outline of social mobilization activities to increase public awareness on #Ebola http://t.‚Ä¶",
    "pubdate": "11/12/2014 22:49:29",
    "Latitude": 16.287497761288716,
    "Longitude": -4.12853696093207
  },
  {
    "": 248,
    "title": "RT @CDCgov: Unsafe burial practices are a major cause of new #Ebola cases in Sierra Leone. This week\\'s #EbolaBigIdea is SAFE BURIALS SAVE L‚Ä¶",
    "pubdate": "11/12/2014 22:49:22",
    "Latitude": 16.282742228737582,
    "Longitude": -6.206630653465844
  },
  {
    "": 249,
    "title": ".....then, the #KimKardashian photo shoot was released and everyone forgot that they were terrified of #Ebola.",
    "pubdate": "11/12/2014 22:49:16",
    "Latitude": 11.259589924439199,
    "Longitude": -4.126124923364948
  },
  {
    "": 250,
    "title": "RT @picardonhealth: First Outbreak Quashed, #Ebola Reappears in #Mali  http://t.co/PfzAmGS78Z via @nytimes",
    "pubdate": "11/12/2014 22:49:14",
    "Latitude": 17.626343876254385,
    "Longitude": -3.756934861983444
  },
  {
    "": 251,
    "title": "RT @tweetybird2009: @AlverezAmanda I\\'m sure #Obama will try to get some of that 6.2 #billion to his country, just to keep #Ebola out!",
    "pubdate": "11/12/2014 22:49:14",
    "Latitude": 16.033075237635273,
    "Longitude": -2.373181557072606
  },
  {
    "": 252,
    "title": "RT @SavetheChildren: Your #Ebola donation will help now more than ever. @Google will give $2 for each $1 you donate http://t.co/D9lTC93NIy ‚Ä¶",
    "pubdate": "11/12/2014 22:49:09",
    "Latitude": 18.704837121832092,
    "Longitude": -6.374657566570223
  },
  {
    "": 253,
    "title": "RT @CDCgov: Sierra Leone is fighting #Ebola and educating its residents one big idea at a time. This week\\'s #EbolaBigIdea is SAFE BURIALS S‚Ä¶",
    "pubdate": "11/12/2014 22:49:07",
    "Latitude": 14.018997853786734,
    "Longitude": -4.560123875344951
  },
  {
    "": 254,
    "title": "Find out what\\'s being done to honor the 1st US patient who died from the #Ebola virus at 10 #charlotte #clt @myfoxdfw http://t.co/yXr7fxK2rL",
    "pubdate": "11/12/2014 22:48:56",
    "Latitude": 14.374692911973405,
    "Longitude": -3.469916595946885
  },
  {
    "": 255,
    "title": "Our #hospital is safer since #Ebola #bonsecours #stfrancis",
    "pubdate": "11/12/2014 22:48:51",
    "Latitude": 14.296191738513084,
    "Longitude": -0.38705453657848565
  },
  {
    "": 256,
    "title": "#Ebola death toll tops 5,000; steep rise in Sierra Leone cases: WHO http://t.co/PgOHIkxHOr via @feedly",
    "pubdate": "11/12/2014 22:48:48",
    "Latitude": 14.827928058941005,
    "Longitude": -3.381006085408316
  },
  {
    "": 257,
    "title": "Interactive #Ebola outbreak timeline http://t.co/TkAhI4oeu6",
    "pubdate": "11/12/2014 22:48:45",
    "Latitude": 18.790546008727013,
    "Longitude": -5.479165523116537
  },
  {
    "": 258,
    "title": "ChuckCJohnson joins me #GOTNEWS #EBOLA #FERGUSON #UPDATES #TCOT LISTEN-&gt; http://t.co/AvEWODyU4R",
    "pubdate": "11/12/2014 22:48:36",
    "Latitude": 14.94886672297409,
    "Longitude": -4.494809865002378
  },
  {
    "": 259,
    "title": "Fun Fact: Bea told me she prefers hanging out with black boys instead of me, her Bestfriend. #ebola #wut",
    "pubdate": "11/12/2014 22:48:31",
    "Latitude": 16.363082328444392,
    "Longitude": -5.452029244802134
  },
  {
    "": 260,
    "title": "RT @YaThinkN: Thank you @antloewenstein about bloody time #Ebola profiteering at expense of qualified NGO was pointed out :( http://t.co/gp‚Ä¶",
    "pubdate": "11/12/2014 22:48:31",
    "Latitude": 14.792193283774708,
    "Longitude": -4.952546374233636
  },
  {
    "": 261,
    "title": "RT @LukeRussert: #USA media needs 2 b more concerned w 22 vets committing suicide a day &amp; vet unemployment rate than #Ebola or #MH370 http:‚Ä¶",
    "pubdate": "11/12/2014 22:48:30",
    "Latitude": 12.753717394161173,
    "Longitude": -5.2476494938662706
  },
  {
    "": 262,
    "title": "RT @DavidFisman: @AMREFCanada thanks for an amazing and stimulating evening.  Great discussion on #ebola in context.",
    "pubdate": "11/12/2014 22:48:06",
    "Latitude": 15.950215174876615,
    "Longitude": -3.9164675761369265
  },
  {
    "": 263,
    "title": "RT @ONECampaign: SHOCKING: One in 7 women risk dying in #childbirth in #Ebola-hit countries  http://t.co/nf2gA7CQxC via @Reuters http://t.c‚Ä¶",
    "pubdate": "11/12/2014 22:48:06",
    "Latitude": 17.222107391456277,
    "Longitude": -5.018665558714311
  },
  {
    "": 264,
    "title": "RT @EbolaOutbreakUS: RT Minnesota loses track of people being Monitored for Ebola in #Minnesota ! http://t.co/64BJkQKcRG #Ebola Gander Moun‚Ä¶",
    "pubdate": "11/12/2014 22:47:52",
    "Latitude": 12.400756494713251,
    "Longitude": -3.4807160227760914
  },
  {
    "": 265,
    "title": "‚Äú@YouAintBaut_It: @kyledrane  üòÇüòÇüòÇüòÇüòÇüòÇüòÇ‚Äù now get out my mentions and get to the doctor. #ebola",
    "pubdate": "11/12/2014 22:47:40",
    "Latitude": 14.83274008065659,
    "Longitude": -4.7036902162752305
  },
  {
    "": 266,
    "title": "First Outbreak Quashed, #Ebola Reappears in #Mali  http://t.co/PfzAmGS78Z via @nytimes",
    "pubdate": "11/12/2014 22:47:35",
    "Latitude": 17.08454875201495,
    "Longitude": -3.025213353453255
  },
  {
    "": 267,
    "title": "RT @Scrivener3: #Ebola Outbreak Deaths Pass 5,000TOTAL DEATHS = 5,160INFECTED = &gt; 14,000http://t.co/TDsJCuMtsG http://t.co/Z4hgwzgnBl",
    "pubdate": "11/12/2014 22:47:29",
    "Latitude": 16.838138005216738,
    "Longitude": -3.1280324395844916
  },
  {
    "": 268,
    "title": "RT @YaThinkN: Thank you @antloewenstein about bloody time #Ebola profiteering at expense of qualified NGO was pointed out :( http://t.co/gp‚Ä¶",
    "pubdate": "11/12/2014 22:47:22",
    "Latitude": 11.399272883117487,
    "Longitude": -5.895502355581755
  },
  {
    "": 269,
    "title": "Review Into ¬£200K Academy Heads\\' Salaries http://t.co/eHZ9CqnZil #skynews #ebola #iphonewallpaper #hdwallpaper",
    "pubdate": "11/12/2014 22:46:56",
    "Latitude": 15.579399707487184,
    "Longitude": -2.952697554896111
  },
  {
    "": 270,
    "title": "RT @GOPTeens: #Teens: Elect a #Republican Senate -- less #American cases of #Ebola.#Coincidence?",
    "pubdate": "11/12/2014 22:46:44",
    "Latitude": 14.165349519612207,
    "Longitude": -5.483354968720752
  },
  {
    "": 271,
    "title": "RT @KentPage: Sierra Leone: #Ebola social mob work coordinated by @UNICEFSL has put out 200K posters, 40K factsheets &amp; 1.5M SMS http://t.co‚Ä¶",
    "pubdate": "11/12/2014 22:46:26",
    "Latitude": 16.146671276012945,
    "Longitude": -4.3886666864802155
  },
  {
    "": 272,
    "title": "@andrewwlittle: more important issues facing humanity? #Ebola #SyriaCrisis. If we can\\'t solve those, be thankful we can do #CometLanding",
    "pubdate": "11/12/2014 22:46:25",
    "Latitude": 15.330767907914066,
    "Longitude": -5.969499448858755
  },
  {
    "": 273,
    "title": "unbelievable RT @steve1johnson: This is staggering...Eyewitness to Hell: Life in #Ebola-Ravaged Liberia http://t.co/qvLGRQZIH6",
    "pubdate": "11/12/2014 22:46:16",
    "Latitude": 14.699536904552174,
    "Longitude": -5.9082003229921
  },
  {
    "": 274,
    "title": "RT @loudobbsnews: The #Obama WH needs $6.2B to fight #Ebola, but the @UN is only asking for $1B.  Sen @JohnBoozman explains #LouDobbsTonight",
    "pubdate": "11/12/2014 22:46:13",
    "Latitude": 19.4430908124084,
    "Longitude": -4.660384911439766
  },
  {
    "": 275,
    "title": "RT @PlexusVentures: #Fujifilm says its #flu drug is an #Ebola solution in waiting - @FierceBiotech: http://t.co/Hg81TiIGrc #biotech",
    "pubdate": "11/12/2014 22:46:06",
    "Latitude": 15.007636891613997,
    "Longitude": -4.287701366395319
  },
  {
    "": 276,
    "title": "@AHAhospitals urges Congress to dedicate funding for #hospital #Ebola preparedness http://t.co/y5O4VxKcwj",
    "pubdate": "11/12/2014 22:46:02",
    "Latitude": 14.325026721203871,
    "Longitude": -5.322607000591142
  },
  {
    "": 277,
    "title": "RT @WhySharksMatter: #ProTip Parents, believe your children when they talk about imaginary friends, they may be #ebola carriers. #OutbreakC‚Ä¶",
    "pubdate": "11/12/2014 22:45:46",
    "Latitude": 14.05269291805479,
    "Longitude": -4.664995815668364
  },
  {
    "": 278,
    "title": "Online Homeland security: #Sierra #Leone - #Ebola Virus Disease http://t.co/aqECv6lMu8",
    "pubdate": "11/12/2014 22:45:40",
    "Latitude": 19.040992623018553,
    "Longitude": -2.6098358106468833
  },
  {
    "": 279,
    "title": "RT @girlslovecj_: Hot Nigga RemixüòÇ@Mrsamiamtv #shmoneyremix  #AfricansBeLike #Ebola https://t.co/AKJt61yLTl",
    "pubdate": "11/12/2014 22:45:33",
    "Latitude": 17.279504485970943,
    "Longitude": -0.7483347338567623
  },
  {
    "": 280,
    "title": "RT @blacklooks: A history of medical killers in #Africa #Ebola #HIV #poison #sterilisation http://t.co/5YMrdH0j86 cc @ducorwriter V/ @afriq‚Ä¶",
    "pubdate": "11/12/2014 22:45:30",
    "Latitude": 15.434392034177984,
    "Longitude": -3.8617044062898893
  },
  {
    "": 281,
    "title": "RT @WhySharksMatter: #ProTip Parents, believe your children when they talk about imaginary friends, they may be #ebola carriers. #OutbreakC‚Ä¶",
    "pubdate": "11/12/2014 22:45:28",
    "Latitude": 13.903100251293935,
    "Longitude": -1.7292989026122876
  },
  {
    "": 282,
    "title": "Be careful or you may catch \\'Fearbola\\' http://t.co/QMfz3HvUyg via @HuffPostCaLiv #cdnpoli #cdnhealth #ebola #publichealth #scicomms",
    "pubdate": "11/12/2014 22:45:22",
    "Latitude": 16.9583480960139,
    "Longitude": -5.25890936830117
  },
  {
    "": 283,
    "title": "Ebola Outbreaks Hot SpotsüíÄhttp://t.co/lwD18ZJko1üíÄ #Ebola #Africa #RedCross #WHO #UN #USA #UK#Canada #Australia #RT",
    "pubdate": "11/12/2014 22:45:22",
    "Latitude": 11.631191220837529,
    "Longitude": -3.77954010730671
  },
  {
    "": 284,
    "title": "RT @YannMSF: #Ebola: #MSF Online Briefing Now Available to the Public  http://t.co/WqSnY8W8hL http://t.co/Qo9BVL3FrC",
    "pubdate": "11/12/2014 22:45:19",
    "Latitude": 13.3138960614646,
    "Longitude": -2.705257853681451
  },
  {
    "": 285,
    "title": "RT @ONECampaign: SHOCKING: One in 7 women risk dying in #childbirth in #Ebola-hit countries  http://t.co/nf2gA7CQxC via @Reuters http://t.c‚Ä¶",
    "pubdate": "11/12/2014 22:45:16",
    "Latitude": 18.985138650550518,
    "Longitude": -4.62602479314853
  },
  {
    "": 286,
    "title": "#Ebola victim Eric Duncan‚Äôs family has settled $$$ with Dallas hospital.TX has a cap on Frivolous lawsuits anyway.  http://t.co/NNcJ1yRC2M",
    "pubdate": "11/12/2014 22:45:09",
    "Latitude": 19.22380724434998,
    "Longitude": -4.569992705848333
  },
  {
    "": 287,
    "title": "RT @mercycorps: Skyrocketing food costs &amp; a decrease in income are part of the economic toll caused by #Ebola. Read more: http://t.co/Zv14Q‚Ä¶",
    "pubdate": "11/12/2014 22:45:06",
    "Latitude": 15.986502226413748,
    "Longitude": -6.436017225948717
  },
  {
    "": 288,
    "title": "RT @SavetheChildren: #Ebola Crisis at a \\\"Tipping Point:\\\" 2.5 Million Children under 5 Live in Affected Areas http://t.co/6Rgwvi5OJw",
    "pubdate": "11/12/2014 22:45:04",
    "Latitude": 16.177380289851435,
    "Longitude": -1.767385794957637
  },
  {
    "": 289,
    "title": "RT @RT_com: #Ebola death toll surpasses 5,000 - WHO http://t.co/vdsIIjJoQE http://t.co/NvufkGGuCm",
    "pubdate": "11/12/2014 22:44:58",
    "Latitude": 12.99122404356795,
    "Longitude": 2.112431691253713
  },
  {
    "": 290,
    "title": "RT @YaThinkN: Thank you @antloewenstein about bloody time #Ebola profiteering at expense of qualified NGO was pointed out :( http://t.co/gp‚Ä¶",
    "pubdate": "11/12/2014 22:44:42",
    "Latitude": 15.603038155814431,
    "Longitude": -4.162807645236914
  },
  {
    "": 291,
    "title": "RT @RT_com: #US nurses strike over insufficient #Ebola protections http://t.co/iCYbZDlQkv http://t.co/CYku6t0gVU",
    "pubdate": "11/12/2014 22:44:36",
    "Latitude": 16.50432949816217,
    "Longitude": -3.09195481448788
  },
  {
    "": 292,
    "title": "Online Homeland security: #Sierra #Leone - #Ebola Virus Disease http://t.co/k6cGqoKXcY",
    "pubdate": "11/12/2014 22:44:24",
    "Latitude": 18.644963054393934,
    "Longitude": -5.644829067201286
  },
  {
    "": 293,
    "title": "RT @CDCgov: #CDCintheField from Jana: Presenting outline of social mobilization activities to increase public awareness on #Ebola http://t.‚Ä¶",
    "pubdate": "11/12/2014 22:44:11",
    "Latitude": 16.999797338926406,
    "Longitude": -6.450437615821075
  },
  {
    "": 294,
    "title": "RT @PolitiFact: Release of NY doctor means there are no known cases of #Ebola in the U.S. Here\\'s our most recent checks on the virus. http:‚Ä¶",
    "pubdate": "11/12/2014 22:44:07",
    "Latitude": 14.60060498718858,
    "Longitude": -5.024884688693989
  },
  {
    "": 295,
    "title": "RT @WhySharksMatter: #ProTip Parents, believe your children when they talk about imaginary friends, they may be #ebola carriers. #OutbreakC‚Ä¶",
    "pubdate": "11/12/2014 22:44:01",
    "Latitude": 11.864783758462274,
    "Longitude": -5.555232577985992
  },
  {
    "": 296,
    "title": "#Ebola death toll passes 5000 - Belfast Telegraph http://t.co/MqicspyMnd",
    "pubdate": "11/12/2014 22:43:47",
    "Latitude": 14.109698631411804,
    "Longitude": -4.217414397819534
  },
  {
    "": 297,
    "title": "RT @SusanWojcicki: Google matches $2 for every $1 donated in the fight against Ebola. Join the fight! #Ebola http://t.co/B8DLzqFLv4)",
    "pubdate": "11/12/2014 22:43:47",
    "Latitude": 15.100433940283434,
    "Longitude": -3.4139420736088795
  },
  {
    "": 298,
    "title": "RT @EbolaPlan: #Ebola Ebola: for-profit disaster capitalists are already out looking to make money f  http://t.co/pJ6a8MhvlO http://t.co/tl‚Ä¶",
    "pubdate": "11/12/2014 22:43:44",
    "Latitude": 16.489284387686556,
    "Longitude": -3.5936176630483487
  },
  {
    "": 299,
    "title": "RT @EI_EcoNewsfeed: .@EcoInternet Mali reports 2 new #Ebola deaths in capital: Canadian Press http://t.co/Zf5xs6ihnK *MORE @EI_Ebola http:/‚Ä¶",
    "pubdate": "11/12/2014 22:43:44",
    "Latitude": 17.174742448640664,
    "Longitude": -6.843252039553462
  },
  {
    "": 300,
    "title": "RT @MelissaTweets: If #Ebola and #Gruber tweet on Twitter and media ignores it, do they exist?",
    "pubdate": "11/12/2014 22:43:43",
    "Latitude": 15.043448559950532,
    "Longitude": -3.467892328841039
  },
  {
    "": 301,
    "title": "RT @YaThinkN: Thank you @antloewenstein about bloody time #Ebola profiteering at expense of qualified NGO was pointed out :( http://t.co/gp‚Ä¶",
    "pubdate": "11/12/2014 22:43:39",
    "Latitude": 12.866858613640472,
    "Longitude": -6.831987808400504
  },
  {
    "": 302,
    "title": "RT Minnesota loses track of people being Monitored for Ebola in #Minnesota ! http://t.co/64BJkQKcRG #Ebola Gander Mountain #mnwild #NYC",
    "pubdate": "11/12/2014 22:43:35",
    "Latitude": 12.99356060023287,
    "Longitude": -3.482969593316697
  },
  {
    "": 303,
    "title": "RT @advtecllc: @GulpClearWater  #technology to #STOP #EBOLA #savetheworldswater and our #Earth is here! http://t.co/bbh0Nbsgp1 WHO CARES? T‚Ä¶",
    "pubdate": "11/12/2014 22:43:21",
    "Latitude": 15.594551446787126,
    "Longitude": -4.020666518370705
  },
  {
    "": 304,
    "title": "RT @WhySharksMatter: #ProTip Parents, believe your children when they talk about imaginary friends, they may be #ebola carriers. #OutbreakC‚Ä¶",
    "pubdate": "11/12/2014 22:43:12",
    "Latitude": 13.450078400958493,
    "Longitude": -6.657288322096573
  },
  {
    "": 305,
    "title": "RT @SavetheChildren: #Ebola Crisis at a \\\"Tipping Point:\\\" 2.5 Million Children under 5 Live in Affected Areas http://t.co/6Rgwvi5OJw",
    "pubdate": "11/12/2014 22:43:11",
    "Latitude": 10.50543464722044,
    "Longitude": -6.755414649615268
  },
  {
    "": 306,
    "title": "#OtherExcusesForDemLosses Libs were afaid #Ebola was in the voting booths",
    "pubdate": "11/12/2014 22:43:06",
    "Latitude": 17.168391347475204,
    "Longitude": -8.925037156281974
  },
  {
    "": 307,
    "title": "RT @gemhq: @BTCAgainstEbola uses #Bitcoin donations hub to reduce #remittance fees &amp; better fund the global fight against #Ebola http://t.c‚Ä¶",
    "pubdate": "11/12/2014 22:42:48",
    "Latitude": 14.465990400057832,
    "Longitude": -5.946542531265178
  },
  {
    "": 308,
    "title": "RT @YaThinkN: Thank you @antloewenstein about bloody time #Ebola profiteering at expense of qualified NGO was pointed out :( http://t.co/gp‚Ä¶",
    "pubdate": "11/12/2014 22:42:47",
    "Latitude": 17.59136348290109,
    "Longitude": -1.656017853848467
  },
  {
    "": 309,
    "title": "RT @CDCgov: Unsafe burial practices are a major cause of new #Ebola cases in Sierra Leone. This week\\'s #EbolaBigIdea is SAFE BURIALS SAVE L‚Ä¶",
    "pubdate": "11/12/2014 22:42:46",
    "Latitude": 17.582377713466677,
    "Longitude": -2.999853581790917
  },
  {
    "": 310,
    "title": "RT @duracelqc: PBO get elected, spike in gun sales, why are\\\"Whites\\\"men afraid? Healthcare heroes treating #Ebola patient, detained. Now #Fe‚Ä¶",
    "pubdate": "11/12/2014 22:42:43",
    "Latitude": 18.95505249374185,
    "Longitude": -10.567417554488781
  },
  {
    "": 311,
    "title": "RT @DrFriedenCDC: Emerging disease threats, incl #Ebola, remind us of the impt of detecting, controlling &amp; reporting diseases early &amp; effic‚Ä¶",
    "pubdate": "11/12/2014 22:42:42",
    "Latitude": 17.545688474495872,
    "Longitude": -0.3857150268786209
  },
  {
    "": 312,
    "title": "RT @RT_com: #Ebola death toll surpasses 5,000 - WHO http://t.co/vdsIIjJoQE http://t.co/NvufkGGuCm",
    "pubdate": "11/12/2014 22:42:37",
    "Latitude": 16.80622670053909,
    "Longitude": -3.1021671097192236
  },
  {
    "": 313,
    "title": "RT @Dr_Ran: #Ebola #NPC1 RT @physorg_com: Researchers find \\'key\\' used by ebola virus to unlock cells and spread deadly infection http://t.c‚Ä¶",
    "pubdate": "11/12/2014 22:42:18",
    "Latitude": 12.71393136924913,
    "Longitude": -3.821371379997768
  },
  {
    "": 314,
    "title": "RT @JermaineWatkins: This: See... I knew #Ebola was a bigger worldwide threat than they admitted at jump. http://t.co/rtKgzXzwjk",
    "pubdate": "11/12/2014 22:42:13",
    "Latitude": 17.320040967801397,
    "Longitude": -6.766555677218097
  },
  {
    "": 315,
    "title": "@NicoleCOP thought you might be interested in new data on private giving to #Ebola v. private giving for other crises http://t.co/adwvaZWGXX",
    "pubdate": "11/12/2014 22:42:08",
    "Latitude": 16.772214584001286,
    "Longitude": -2.3223955249987833
  },
  {
    "": 316,
    "title": "RT @ONECampaign: NEWS: More than 14,000 #Ebola cases (including 4 now confirmed in Mali) &amp; more than 5,100 deaths http://t.co/WWxHYheIOS vi‚Ä¶",
    "pubdate": "11/12/2014 22:41:56",
    "Latitude": 16.759569322568055,
    "Longitude": -4.732349627481621
  },
  {
    "": 317,
    "title": "@ReIntonation also, Facebook is asking me for donations for #Ebola while it is clearly a #falseflag. You think I\\'m dum, @facebook?",
    "pubdate": "11/12/2014 22:41:55",
    "Latitude": 15.672498055643747,
    "Longitude": -2.655774095581112
  },
  {
    "": 318,
    "title": "RT @DrFriedenCDC: Sen. Bill Frist, MD: ‚ÄúNo time for complacency‚Äù in must-read new op-ed on #Ebola response: http://t.co/mp6iNzT9LD @FoxNews",
    "pubdate": "11/12/2014 22:41:53",
    "Latitude": 13.968991834691245,
    "Longitude": -5.700863775270089
  },
  {
    "": 319,
    "title": "RT @MelissaTweets: If #Ebola and #Gruber tweet on Twitter and media ignores it, do they exist?",
    "pubdate": "11/12/2014 22:41:49",
    "Latitude": 16.21919401407756,
    "Longitude": -3.2074652011059124
  },
  {
    "": 320,
    "title": "#Ebola Ebola: for-profit disaster capitalists are already out looking to make money f  http://t.co/pJ6a8MhvlO http://t.co/tlKkcTHqN6",
    "pubdate": "11/12/2014 22:41:44",
    "Latitude": 16.80968220116251,
    "Longitude": -5.839393632173939
  },
  {
    "": 321,
    "title": "RT @Reslizumab: No evidence that the Ebola vaccine causes autism!üë™üë™üë™üë™#autism #aspergers #healthcare #CDCwhistleblower #Ebolaüë™üë™üë™üë™http://‚Ä¶",
    "pubdate": "11/12/2014 22:41:39",
    "Latitude": 18.197294496565746,
    "Longitude": -4.790971928392509
  },
  {
    "": 322,
    "title": "RT @CDCgov: Sierra Leone is fighting #Ebola and educating its residents one big idea at a time. This week\\'s #EbolaBigIdea is SAFE BURIALS S‚Ä¶",
    "pubdate": "11/12/2014 22:41:19",
    "Latitude": 19.86025780416009,
    "Longitude": -5.671454683290476
  },
  {
    "": 323,
    "title": "RT @MoNscience Cld u walkthru #Ebola ward w/o catchng virus? video game could teach u how.http://t.co/uwluXlv8zr @nprGlobalHealth @shiftlabs",
    "pubdate": "11/12/2014 22:41:10",
    "Latitude": 16.134647241214275,
    "Longitude": -2.3643492258734105
  },
  {
    "": 324,
    "title": "RT @MoNscience Cld u walkthru #Ebola ward w/o catchng virus? video game could teach u how.http://t.co/DJNV8crBKv @nprGlobalHealth @shiftlabs",
    "pubdate": "11/12/2014 22:41:10",
    "Latitude": 17.352396366787932,
    "Longitude": -5.5685336431204595
  },
  {
    "": 325,
    "title": "A history of medical killers in #Africa #Ebola #HIV #poison #sterilisation http://t.co/5YMrdH0j86 cc @ducorwriter V/ @afriquiana86",
    "pubdate": "11/12/2014 22:41:06",
    "Latitude": 15.130019471599326,
    "Longitude": -3.937206377645872
  },
  {
    "": 326,
    "title": "#ProTip Parents, believe your children when they talk about imaginary friends, they may be #ebola carriers. #OutbreakChat",
    "pubdate": "11/12/2014 22:41:05",
    "Latitude": 14.374212520914043,
    "Longitude": -6.457149262968462
  },
  {
    "": 327,
    "title": "#Ebola Fears, Start Of #Flu Season Spur Jump In Sales For Clorox Disinfectant Wipes http://t.co/ZShy3KwXgE #data #cbssf #virus #health",
    "pubdate": "11/12/2014 22:40:59",
    "Latitude": 14.205657330655246,
    "Longitude": -3.024054391220596
  },
  {
    "": 328,
    "title": "RT @JermaineWatkins: This: See... I knew #Ebola was a bigger worldwide threat than they admitted at jump. http://t.co/rtKgzXzwjk",
    "pubdate": "11/12/2014 22:40:58",
    "Latitude": 10.255248569337994,
    "Longitude": -3.852551191045779
  },
  {
    "": 329,
    "title": "RT @archietse: After weeks of fewer #Ebola cases in Liberia, @WHO says it appears ‚Äútrend is real‚Äù http://t.co/cHEArMXp33 http://t.co/RRjtnf‚Ä¶",
    "pubdate": "11/12/2014 22:40:57",
    "Latitude": 15.110733757062672,
    "Longitude": -3.113346567677872
  },
  {
    "": 330,
    "title": "Fake \\\"pandemics\\\" are another game of mind control!http://t.co/nN0IdWpmIn #news #fraud #lies #TGDN #pjnet #tcot #ccot #waar #ebola",
    "pubdate": "11/12/2014 22:40:56",
    "Latitude": 13.714159775411103,
    "Longitude": -4.348508050263722
  },
  {
    "": 331,
    "title": "I don\\'t understand the fuss over the #CometLanding. Surely there are infinitely more important issues facing humanity. #Ebola #SyriaCrisis",
    "pubdate": "11/12/2014 22:40:48",
    "Latitude": 16.9483932930687,
    "Longitude": -4.890484391995651
  },
  {
    "": 332,
    "title": "@danieltosh until you cute #ebola I\\'m only watching reruns. I\\'m that cool.",
    "pubdate": "11/12/2014 22:40:42",
    "Latitude": 16.95815172691417,
    "Longitude": -3.325908511323645
  },
  {
    "": 333,
    "title": "Online Homeland security: #Senegal - #Ebola Virus Disease http://t.co/1awbnLEr2k",
    "pubdate": "11/12/2014 22:40:37",
    "Latitude": 16.818087800894222,
    "Longitude": -5.838058940578723
  },
  {
    "": 334,
    "title": "Watching @SouthPark #RandyIsLorde #alexfromtarget #rachelfromwalgreens #hashtag #Ebola",
    "pubdate": "11/12/2014 22:40:35",
    "Latitude": 16.189488611428157,
    "Longitude": -6.1641816924036235
  },
  {
    "": 335,
    "title": "RT @AllergyKidsDoc: Actual discussion:Parent \\\"I want #Ebola vaccine for my child\\\"Doc \\\"There isn\\'t one, but we have #flushot\\\"Parent \\\"We d‚Ä¶",
    "pubdate": "11/12/2014 22:40:23",
    "Latitude": 11.225940315944586,
    "Longitude": -4.32479057391556
  },
  {
    "": 336,
    "title": "@AMREFCanada thanks for an amazing and stimulating evening.  Great discussion on #ebola in context.",
    "pubdate": "11/12/2014 22:40:23",
    "Latitude": 11.81730484054655,
    "Longitude": -4.445428569346407
  },
  {
    "": 337,
    "title": "#Ebola Outbreak Deaths Pass 5,000TOTAL DEATHS = 5,160INFECTED = &gt; 14,000http://t.co/TDsJCuMtsG http://t.co/Z4hgwzgnBl",
    "pubdate": "11/12/2014 22:40:19",
    "Latitude": 13.681280520783996,
    "Longitude": -4.327189526047826
  },
  {
    "": 338,
    "title": "This: See... I knew #Ebola was a bigger worldwide threat than they admitted at jump. http://t.co/rtKgzXzwjk",
    "pubdate": "11/12/2014 22:40:16",
    "Latitude": 16.574286652040918,
    "Longitude": -6.549733765795976
  },
  {
    "": 339,
    "title": "Heat limits time doctors can spend in PPE to treat #ebola patients. @USAID @WhiteHouse challenge: design better suit http://t.co/9pkHzixmWB",
    "pubdate": "11/12/2014 22:40:09",
    "Latitude": 20.462218225042996,
    "Longitude": -5.374537958881148
  },
  {
    "": 340,
    "title": "RT @hp_ems: We\\'re so bad at assessing real risk. #Ebola http://t.co/4x5zPkA8JK via @Cowan4President",
    "pubdate": "11/12/2014 22:40:08",
    "Latitude": 15.85461543719861,
    "Longitude": -5.257607912083593
  },
  {
    "": 341,
    "title": "RT @RT_com: #US nurses strike over insufficient #Ebola protections http://t.co/iCYbZDlQkv http://t.co/CYku6t0gVU",
    "pubdate": "11/12/2014 22:39:54",
    "Latitude": 15.265018307853039,
    "Longitude": -5.470015904878741
  },
  {
    "": 342,
    "title": "Perspective: #Ebola is rampant in west Africa while American scientists are busy discovering the \\\"stupidity\\\" virus: http://t.co/dGyGmB8fGI",
    "pubdate": "11/12/2014 22:39:52",
    "Latitude": 11.486028200265984,
    "Longitude": -2.1307665930473703
  },
  {
    "": 343,
    "title": "RT @Oritavancin: No evidence the Ebola vaccine causes autism!#autism #aspergers #Psychiatry #healthcare #CDCwhistleblower #ebolahttp://‚Ä¶",
    "pubdate": "11/12/2014 22:39:42",
    "Latitude": 12.822467406589471,
    "Longitude": -3.1759786526236593
  },
  {
    "": 344,
    "title": "PBO get elected, spike in gun sales, why are\\\"Whites\\\"men afraid? Healthcare heroes treating #Ebola patient, detained. Now #Ferguson WTH, w/RW",
    "pubdate": "11/12/2014 22:39:37",
    "Latitude": 16.313956695658515,
    "Longitude": -6.968549686026048
  },
  {
    "": 345,
    "title": "RT @KCBSNews: #Ebola fears, start of #flu season spur jump in sales for Clorox disinfectant wipes http://t.co/pFERvhzM1c",
    "pubdate": "11/12/2014 22:39:09",
    "Latitude": 15.413947209179788,
    "Longitude": -3.772858008516435
  },
  {
    "": 346,
    "title": "RT @SavetheChildren: #Ebola Crisis at a \\\"Tipping Point:\\\" 2.5 Million Children under 5 Live in Affected Areas http://t.co/6Rgwvi5OJw",
    "pubdate": "11/12/2014 22:39:07",
    "Latitude": 14.791037098971643,
    "Longitude": -6.436721053920131
  },
  {
    "": 347,
    "title": "RT @AMREFCanada: @DavidFisman giving the #AmrefCoffehouse crowd an overview of Ebola -it\\'s history, how it is spread #Ebola",
    "pubdate": "11/12/2014 22:39:06",
    "Latitude": 15.270100874966504,
    "Longitude": -5.802704961632944
  },
  {
    "": 348,
    "title": "Online Homeland security: #Senegal - #Ebola Virus Disease http://t.co/z3DP2aIsQF",
    "pubdate": "11/12/2014 22:39:05",
    "Latitude": 14.541414266476009,
    "Longitude": -4.251847782883376
  },
  {
    "": 349,
    "title": "RT @AskCheyB: VIDEO: #EbolaLoveStory Can #CraigSpencer #MorganDixon romance survive #Ebola? http://t.co/XgjA2A1opL  @ChasingNJ @FOX29philly‚Ä¶",
    "pubdate": "11/12/2014 22:38:59",
    "Latitude": 17.050335020386616,
    "Longitude": -5.931526539328246
  },
  {
    "": 350,
    "title": "RT @EI_EcoNewsfeed: .@EcoInternet Mali reports 2 new #Ebola deaths in capital: Canadian Press http://t.co/Zf5xs6ihnK *MORE @EI_Ebola http:/‚Ä¶",
    "pubdate": "11/12/2014 22:38:42",
    "Latitude": 16.34781093688198,
    "Longitude": -2.2764228101970003
  },
  {
    "": 351,
    "title": "RT @AllergyKidsDoc: Actual discussion:Parent \\\"I want #Ebola vaccine for my child\\\"Doc \\\"There isn\\'t one, but we have #flushot\\\"Parent \\\"We d‚Ä¶",
    "pubdate": "11/12/2014 22:38:29",
    "Latitude": 14.056738875284513,
    "Longitude": -2.35540281168449
  },
  {
    "": 352,
    "title": "RT @africarenewal: #WestAfrica on brink of major food crisis in wake of #Ebola outbreak, warns UN special rapporteur http://t.co/5MN3mYeGmw‚Ä¶",
    "pubdate": "11/12/2014 22:38:21",
    "Latitude": 12.756342283025104,
    "Longitude": -4.515439509356475
  },
  {
    "": 353,
    "title": "I\\'m not a nurse or MD but would want to help on the ground in west Africa in the #ebola fight. But how @msf ?",
    "pubdate": "11/12/2014 22:38:19",
    "Latitude": 17.323802692755585,
    "Longitude": -2.61354932199506
  },
  {
    "": 354,
    "title": "Swimming, touching, and per diems - stories from the #Ebola response in West Africa. https://t.co/owxFcSe2FC on @aid_leap",
    "pubdate": "11/12/2014 22:38:16",
    "Latitude": 16.647818323467728,
    "Longitude": -1.374788389382275
  },
  {
    "": 355,
    "title": "#pray #hope #Ebola #victims #death #toll #outbreak #rises African - Hope - Devotion riddim [Tribute Song ] http://t.co/uRemrmxPc2",
    "pubdate": "11/12/2014 22:38:09",
    "Latitude": 18.725516261412036,
    "Longitude": -4.939695689866538
  },
  {
    "": 356,
    "title": "UAB nixes university-funded trips Sierra Leone, Guinea, Liberia over #ebola concerns http://t.co/nDj0PwSbVX http://t.co/LWS2osweBt",
    "pubdate": "11/12/2014 22:38:08",
    "Latitude": 15.29770051011062,
    "Longitude": -1.1850389565952
  },
  {
    "": 357,
    "title": "RT @EI_EcoNewsfeed: .@EcoInternet Mali reports 2 new #Ebola deaths in capital: Canadian Press http://t.co/Zf5xs6ihnK *MORE @EI_Ebola http:/‚Ä¶",
    "pubdate": "11/12/2014 22:38:05",
    "Latitude": 14.747142563639942,
    "Longitude": -2.670414217543418
  },
  {
    "": 358,
    "title": "People talking about #EBOLA is getting annoying",
    "pubdate": "11/12/2014 22:38:04",
    "Latitude": 15.446905779701552,
    "Longitude": -4.292445332975718
  },
  {
    "": 359,
    "title": "RT @YaThinkN: Thank you @antloewenstein about bloody time #Ebola profiteering at expense of qualified NGO was pointed out :( http://t.co/gp‚Ä¶",
    "pubdate": "11/12/2014 22:38:03",
    "Latitude": 15.118087056879354,
    "Longitude": -4.537235233403749
  },
  {
    "": 360,
    "title": "This is #BS. Can the USA sue Duncan\\'s estate for bring #Ebola here? How bout the 2 nurses who got sick. #FHim https://t.co/8iT2qE2IN3",
    "pubdate": "11/12/2014 22:38:00",
    "Latitude": 18.07634056193593,
    "Longitude": -2.303656272596119
  },
  {
    "": 361,
    "title": "RT @WhySharksMatter: Interesting, some of the symptoms of #Ebola (bleeding from eyes, passing out, vomit) are also symptoms of watching thi‚Ä¶",
    "pubdate": "11/12/2014 22:37:40",
    "Latitude": 19.1832931775381,
    "Longitude": -3.199000224117687
  },
  {
    "": 362,
    "title": "RT @WhySharksMatter: Interesting, some of the symptoms of #Ebola (bleeding from eyes, passing out, vomit) are also symptoms of watching thi‚Ä¶",
    "pubdate": "11/12/2014 22:37:38",
    "Latitude": 10.002579587922275,
    "Longitude": -1.3367475661316872
  },
  {
    "": 363,
    "title": "RT @RT_com: #US nurses strike over insufficient #Ebola protections http://t.co/iCYbZDlQkv http://t.co/CYku6t0gVU",
    "pubdate": "11/12/2014 22:37:32",
    "Latitude": 15.792843510437157,
    "Longitude": -7.853964277912185
  },
  {
    "": 364,
    "title": "RT @SavetheChildren: #Ebola Crisis at a \\\"Tipping Point:\\\" 2.5 Million Children under 5 Live in Affected Areas http://t.co/6Rgwvi5OJw",
    "pubdate": "11/12/2014 22:37:31",
    "Latitude": 16.27614788309943,
    "Longitude": -3.6391766284084675
  },
  {
    "": 365,
    "title": "Interesting, some of the symptoms of #Ebola (bleeding from eyes, passing out, vomit) are also symptoms of watching this movie #OutbreakChat",
    "pubdate": "11/12/2014 22:37:28",
    "Latitude": 15.05407820903225,
    "Longitude": -4.9999179999968675
  },
  {
    "": 366,
    "title": "RT @hniman: #Ebola nosocomial cluster in Pasteur Clinic in Bamako Mali grows to five #EbolaOutbreak CIDRAP http://t.co/3BtjBU0Cc9",
    "pubdate": "11/12/2014 22:37:25",
    "Latitude": 12.143525642155216,
    "Longitude": -3.6534592993631585
  },
  {
    "": 367,
    "title": "RT @EI_EcoNewsfeed: .@EcoInternet Mali reports 2 new #Ebola deaths in capital: Canadian Press http://t.co/Zf5xs6ihnK *MORE @EI_Ebola http:/‚Ä¶",
    "pubdate": "11/12/2014 22:36:38",
    "Latitude": 14.44888590614796,
    "Longitude": -4.6837021956367755
  },
  {
    "": 368,
    "title": "RT @RT_com: #US nurses strike over insufficient #Ebola protections http://t.co/iCYbZDlQkv http://t.co/CYku6t0gVU",
    "pubdate": "11/12/2014 22:36:38",
    "Latitude": 19.42303237915502,
    "Longitude": -5.9217313898065385
  },