,Unnamed: 0,title,pubdate,Latitude,Longitude
0,0,Administration makes case for emergency Ebola funds #ebola http://t.co/O95M0zN3Xl or http://t.co/y4XQ8SnNrU,2014-09-28 18:44,-6.414994352,22.30381339
1,1,RT @UmaruFofana: #SierraLeone confirms 94 new #Ebola cases today with 53 in Freetown &amp; environs. It brings to 295 new cases in last 3 days.,2014-09-20 0:46,-6.99359363,23.97186062
2,2,Who will pay to stop Ebola?   http://t.co/hOeAMv3cZS  #americanpublic #ebola,2014-09-29 20:15,-3.885677237,18.64476017
3,3,Administration makes case for emergency Ebola funds #ebola http://t.co/ubM12j56KP,2014-09-01 11:55,-2.441768906,19.80620092
4,4,RT @UmaruFofana: #SierraLeone confirms 94 new #Ebola cases today with 53 in Freetown &amp; environs. It brings to 295 new cases in last 3 days.,2014-09-08 14:03,-4.954816724,22.36569317
5,5,NOW LISTEN TO .@PoliticalJones tkg #Ebola &amp; #PublicHealth w/ .@docgriggs: http://t.co/mWLo4Vg446  http://t.co/43p3fkgWNS,2014-08-02 15:48,-3.971935829,23.3745609
6,6,"#Ebola death toll passes 5,000-mark: WHO",2014-08-16 14:15,-3.987734463,22.61678136
7,7,African football latest victim of #Ebola after Morocco expelled from Cup of Nations tournament http://t.co/UahOe1lscZ http://t.co/IuHzjq6DFJ,2014-08-22 17:36,-3.511630809,21.10997751
8,8,Kim Kardashian Distracting us from what\'s really going on... #ebola,2014-08-18 10:18,-8.226761989,18.92797683
9,9,RT @RT_com: #US nurses strike over insufficient #Ebola protections http://t.co/iCYbZDlQkv http://t.co/CYku6t0gVU,2014-08-13 11:54,-5.427534987,22.4565764
10,10,RT @LukeRussert: #USA media needs 2 b more concerned w 22 vets committing suicide a day &amp; vet unemployment rate than #Ebola or #MH370 http:‚Ä¶,2014-09-17 20:20,-3.103096988,20.92660126
11,11,"In Wake of #Ebola, Dentist Aims to Keep the Well... Well | #HIPAA #cloud http://t.co/BYHrFZNGNV",2014-09-12 8:06,-4.715734955,21.16019876
12,12,"Mali battles Ebola outbreak as African death toll passes 5,000 #mali #ebola. http://t.co/39ORXIj7KQ",2014-08-31 21:59,-2.900289668,24.84647974
13,13,RT @Crof: #Ebola in Liberia: New cases in Grand Bassa county http://t.co/v5eSoTxZ09,2014-09-20 11:56,-4.038541208,23.74065503
14,14,#Ebola outbreak deaths pass 5000 - BBC News http://t.co/u6KfswK3D7,2014-08-20 9:45,-3.980579186,21.95042095
15,15,RT @AsCorrespondent: UN\'s Ban Ki-moon calls on Asia to step up #Ebola fight  http://t.co/yH3UkYPXfX  #Asia http://t.co/uv1hXYFXtM,2014-08-19 0:32,-4.582690825,21.98355817
16,16,#CDC Covers Up #Ebola Information: http://t.co/LzBPwxSgUV via @YouTube,2014-09-14 21:06,-5.28810167,21.56038197
17,17,RT @FollowEbola: #Ebola crisis: Mali confirms second death. http://t.co/Z3nUvvefli,2014-09-04 4:03,-6.471535323,25.42672053
18,18,Who plays a vital role in the care of patients with #Ebola? #Nurses do. http://t.co/nPJQT5OlcD via @rwjf,2014-08-04 11:58,-7.961468355,21.78388594
19,19,RT @FollowEbola: Bats Link to #Ebola Finally Solved. http://t.co/NsVsBM0486,2014-08-26 9:33,-1.960529493,25.80103999
20,20,RT @makoto_au_japon: #WHO strives to enhance int\'l clinics readiness to prevent #Ebola spread - expert http://t.co/DlTVEBMTNj #GCC #Gulf,2014-09-03 3:14,-5.127005231,19.10963771
21,21,RT @makoto_au_japon: #MSF moves #Ebola preparedness training #online http://t.co/mLMy03Icyi #Africa,2014-08-05 5:17,-2.599751185,20.66807814
22,22,RT @makoto_au_japon: The Fight Against #Ebola Could Lead to Surge in #Measles and #Malaria http://t.co/iYXhw6qyP7 #Africa via @vivwalt,2014-09-06 12:30,-1.974319937,23.14164747
23,23,RT @CHRISTMAS_EVIL: #CometLandingPeople on the moon = hoax.Washing machine on comet = same gag. Spend the money looking for #MH370 an‚Ä¶,2014-08-21 16:57,-1.902432121,20.89260616
24,24,RT @dulaney_l: Did the U.S. Just Secretly Fly in an #African #Ebola Patient? http://t.co/P3ZdDbp8xp via @po_st  #obama #georgia,2014-09-05 11:35,-1.720285455,20.92219265
25,25,RT @makoto_au_japon: #Rwanda:Bayingana blasts teams for snubbing #Tour du Rwanda over #Ebola fears http://t.co/ywLflGJtSG #Africa #Cycling ‚Ä¶,2014-08-03 2:31,-1.801580785,23.4011629
26,26,RT @drmannyonFOX: I\'ll be on #TheKellyFile tonight at 9PM ET talking about why I think @DrFriedenCDC should step down. #EBOLA,2014-08-20 18:03,-6.551217298,21.18374626
27,27,RT @makoto_au_japon: #Japan Donates #Ebola Preventive Kit To #Ghana http://t.co/deHXMFwGLB #Africa #donation http://t.co/tJHDuMOdS2,2014-09-18 17:31,-3.68493576,20.15764932
28,28,RT @makoto_au_japon: #Japan: #Tokyo Govt Conducts #Ebola Response #Drill http://t.co/5tc8kINGKl #hospital,2014-09-03 12:50,-0.770539724,22.10123692
29,29,RT @makoto_au_japon: #Japan: #Tokyo conducts #Ebola #drill http://t.co/265CMMfF1r #hospital,2014-09-14 13:59,-2.597890994,21.14362806
30,30,RT @Liberationtech: Deploying Technology in the Fight Against #Ebola http://t.co/DYuOrgI7hk by @drjohnbates,2014-08-25 3:58,-3.348986769,22.43253765
31,31,RT @RT_com: #US nurses strike over insufficient #Ebola protections http://t.co/iCYbZDlQkv http://t.co/CYku6t0gVU,2014-08-15 10:49,-5.189772815,16.67715597
32,32,RT @makoto_au_japon: #Samoa to stop incoming flights to prevent #Ebola http://t.co/yeD234Of65 #Africa #travel #guideline,2014-09-03 21:33,-5.183040471,23.48596781
33,33,RT @makoto_au_japon: #US: #Georgia health officials refuse to name #Ebola hospitals http://t.co/tRZhgBc7RR #hospital,2014-09-16 8:31,-2.887580225,19.67668608
34,34,#Ebola Lawmakers question Obama&amp;#039;s $6-billion request for Ebola funding   http://t.co/yxN1WGkCYn http://t.co/yg2fQkuHg6,2014-08-01 0:09,-0.598770473,22.48951999
35,35,RT @makoto_au_japon: #Trinidad &amp; #Tobago: #Ebola treatment centre ready http://t.co/aVZtt79dsY #TT #Caribbean,2014-09-25 10:45,-3.015824776,24.35146643
36,36,@UNDP providing important fail safe in fight against #Ebola. http://t.co/a0D7Q7QZ8x @UNMEER @DougUNDP @HelenClarkUNDP,2014-09-20 0:59,-2.104134452,21.73666589
37,37,RT @makoto_au_japon: #Israel: Watch: Israel sending #Ebola field hospital and staff to #Africa (Video) http://t.co/UqNdcDO8x1,2014-08-17 0:42,-6.502487606,22.43904226
38,38,RT @InfoEbola: ‚ÄúYour Blood Tested Positive for #Ebola. I Am Sorry.‚ÄùRead Dr. Ada Ignohoh\'s story. Posted online by Bill Gates... http://t.‚Ä¶,2014-08-08 14:46,-6.816257991,21.75342812
39,39,A Poem: On the Arrival of Ebola in New York   http://t.co/lg5zqqrEtd  #ebola #funny #humor via @humortimes,2014-08-17 6:32,-1.779251591,19.58469657
40,40,"RT @makoto_au_japon: #Kazakhstan: No Kazakhstanis contracted #Ebola #virus in #Africa, MFA http://t.co/JxzKkKAA9K #Kazakh",2014-08-07 11:24,-4.248625634,21.28258415
41,41,"RT @seanparnell: British PM makes #ebola a #G20 priority. Aust PM last week said \""I don\'t think at this stage we want to over-estimate the ‚Ä¶",2014-08-07 19:59,-7.746899184,22.29114156
42,42,RT @RT_com: #US nurses strike over insufficient #Ebola protections http://t.co/iCYbZDlQkv http://t.co/CYku6t0gVU,2014-08-05 7:36,-4.144476159,25.35163847
43,43,RT @makoto_au_japon: #Russia to begin testing its #Ebola drugs http://t.co/mi5rIu4IMC #Africa #drug,2014-08-26 5:17,-2.818130045,19.50483128
44,44,RT @RT_com: #US nurses strike over insufficient #Ebola protections http://t.co/iCYbZDlQkv http://t.co/CYku6t0gVU,2014-09-29 3:14,-6.209641519,23.15873921
45,45,RT @makoto_au_japon: #APEC leaders determined to jointly fight #Ebola: Xi http://t.co/cJD6HVIAWi #China,2014-08-28 16:02,-6.533372769,19.73738325
46,46,Good to hear Joe Hockey confirm #Ebola is on the agenda at #G20 - plus this from David Cameron earlier http://t.co/LJCUwU3Air,2014-08-27 6:18,-2.062822799,23.01182427
47,47,Fran just told me she loved me and she doesn\'t want anything üòü #EBOLA???,2014-09-21 12:03,-5.289124036,24.43583573
48,48,"RT @kasujja: Africa, the land of simba, Cleopatra...oh and #Ebola! According to @TMZ.  Really? Humour? Ignorance? Indifference? http://t.co‚Ä¶",2014-08-05 17:31,-6.918179384,21.75865412
49,49,Deploying Technology in the Fight Against #Ebola http://t.co/DYuOrgI7hk by @drjohnbates,2014-09-19 20:40,-1.854210148,26.1768182
50,50,Clinical Care of Two Patients with #Ebola Virus Disease in the United States http://t.co/300NOKkpiy,2014-08-14 12:41,-5.768223388,19.80114035
51,51,RT @NewsonEbola: #Ebola #EbolaOutbreak Thomas Eric Duncan\'s Family Reaches \'Resolution\' With Dallas Hospital In Ebola Case http://t.co/DIcW‚Ä¶,2014-09-29 21:21,-2.561433788,22.18742791
52,52,RT @RainaMacIntyre: #Ebola and why it matters - 10 min summary &amp; what you can do @UNSW Alliance against Ebola. http://t.co/SfbP7taVSH  @Joe‚Ä¶,2014-09-13 13:33,-4.39585076,19.2254689
53,53,"RT @dulaney_l: As If #Ebola Weren\'t Bad Enough, Here\'s Another Deadly #Disease Invading America Across The #Border http://t.co/SDvDIy4rzv v‚Ä¶",2014-09-29 5:14,1.695729555,20.76902761
54,54,#Ebola season 3 ep13 http://t.co/zwrYpoElgq,2014-09-20 1:21,-4.851184761,23.02804585
55,55,"RT seanparnell: British PM makes #ebola a #G20 priority. Aust PM last week said \""I don\'t think at this stage we want to over-estimate the...",2014-08-25 8:44,-2.923755609,19.9778382
56,56,"RT @WBUR: As health workers fight to control the #Ebola outbreak, are there lessons from the Boston 1721 smallpox epidemic? http://t.co/hyM‚Ä¶",2014-08-07 2:15,-2.093168591,19.15832419
57,57,RT @YaThinkN: Thank you @antloewenstein about bloody time #Ebola profiteering at expense of qualified NGO was pointed out :( http://t.co/gp‚Ä¶,2014-08-20 7:18,-4.039239329,21.80683747
58,58,"http://t.co/C92r11cNG8 Rhode Island, US: 15 Being Monitored for #Ebola #Ebola Alerts",2014-09-12 3:07,-3.140107316,21.18903167
59,59,RT @RT_com: #US nurses strike over insufficient #Ebola protections http://t.co/iCYbZDlQkv http://t.co/CYku6t0gVU,2014-09-03 9:12,-5.23470776,23.75082544
60,60,"#Ebola outbreak: deaths exceed 5000, WHO says - CBC.ca http://t.co/x1xemg2kar",2014-08-21 11:00,-3.269676687,23.39662929
61,61,Family of #ThomasDuncan settles with Dallas hospital #Ebola http://t.co/sU8sUVFwHo http://t.co/SZaOHQxxDH,2014-08-28 6:56,-1.929082804,22.85231792
62,62,"‚Äú@UCSF: Clinician @DanKelly_MD returning from Sierra Leone \""more hopeful than ever\"" that #Ebola will be eradicated http://t.co/0rxdHyOz7H‚Äù",2014-09-23 9:30,-3.159534209,22.29057854
63,63,RT @NewsonEbola: #Ebola #EbolaOutbreak Thomas Eric Duncan\'s Family Reaches \'Resolution\' With Dallas Hospital In Ebola Case http://t.co/DIcW‚Ä¶,2014-09-19 7:41,-2.947732481,18.2844523
64,64,RT @LukeRussert: #USA media needs 2 b more concerned w 22 vets committing suicide a day &amp; vet unemployment rate than #Ebola or #MH370 http:‚Ä¶,2014-09-03 2:31,-2.429140431,19.96316515
65,65,"British PM makes #ebola a #G20 priority. Aust PM last week said \""I don\'t think at this stage we want to over-estimate the impact of ebola..\"",""British PM makes #ebola a #G20 priority. Aust PM last week said \""I don\'t think at this stage we want to over-estimate the impact of ebola..\"",""Twitter for iPad",2014-08-08 17:05,-1.167773215,23.08348214
66,66,"RT @UNMEER: .@UNBanbury tells @UN_Radio: international community must \""get ahead\"" of #Ebola outbreak - http://t.co/dm7RqErtPf http://t.co/F‚Ä¶",2014-09-11 5:10,-7.688818924,20.58386804
67,67,RT @YourAnonGlobal: #US nurses strike over insufficient #Ebola protections http://t.co/mYv6Aget3r http://t.co/GMGV5KtPVg,2014-09-16 1:27,-2.701689589,24.41540743
68,68,"RT @SavetheChildren: #Ebola Crisis at a \""Tipping Point:\"" 2.5 Million Children under 5 Live in Affected Areas http://t.co/6Rgwvi5OJw",2014-09-23 14:29,-0.762417725,23.81194507
69,69,"RT @FollowEbola: Children Are More Likely To Survive #Ebola, And Now Scientists May Know Why. http://t.co/g2kgNbjg4N",2014-08-18 4:31,-5.877759765,19.88962104
70,70,Via @nprnews: #Ebola In 3-D: A Video #Game To Guide Health Care Workers Through A Ward http://t.co/pmxaIKHH8a #sims,2014-08-10 14:30,-2.267249619,22.26327728
71,71,Whoop whoop haha #ebola http://t.co/C6LU9CoJLe,2014-08-08 18:37,-4.39099379,19.73258179
72,72,How can you help turn the world around &amp; stop our economic collapse? http://t.co/NXOwlbLDeI #GoldOutofHiding#EBOLA #EBOLAANSWERS #ebolaar,2014-09-02 4:31,-1.998898269,24.92569314
73,73,RT @amaausmed: .@amapresident has urged Govt to consider deploying AUSMAT teams to join fight against #Ebola in west Africa https://t.co/bU‚Ä¶,2014-08-21 19:23,-6.186683566,22.5103495
74,74,"RT @GerardBest: #Ebola death toll tops 5,000--WHO http://t.co/TepwFpmnX2 http://t.co/fqdQfNOUyu",2014-08-03 0:09,-3.70816804,18.06608885
75,75,RT @kakape: And in other #Ebolanoia news: Morocco is expelled from soccer tournament for refusing to host it due to #Ebola fears http://t.c‚Ä¶,2014-08-07 18:50,-6.164322493,22.76023561
76,76,RT @Campaign4Action: .@CDCgov issues new #ebola guidelines for emergency departments http://t.co/POIH4G3IDs,2014-09-12 0:52,-2.419773821,21.13633852
77,77,#Ebola World View: Who Has It and Where #TexasHealthPresbyterian #WhereDuncan http://t.co/Lyx42f3DcI http://t.co/NVgHGynguW,2014-08-16 23:16,-1.361573203,18.67564227
78,78,RT @PHammondMP: Good to meet @presidentkoroma Impressed at his commitment to keep fighting #Ebola http://t.co/XImMIu9Nt4,2014-08-05 0:38,-4.45015712,20.43578515
79,79,RT @lajouetreine: #US nurses strike over insufficient #Ebola protections http://t.co/vEwkK2U8p6 http://t.co/UPygTXwkbp,2014-08-25 15:29,-4.516928619,25.11097696
80,80,Remember #Ebola? It\'s Still A Huge Problem - Health Care Edge. http://t.co/yeb4borm5a,2014-08-29 1:41,-2.293503667,15.51936454
81,81,Rage Against the #Ebola Crematorium. http://t.co/RhvUJIIzZ8,2014-08-11 8:31,-5.717869339,23.08795108
82,82,RT @GeneticLiteracy: Who decides who gets treatments in #Ebola #drug trials? via @Nature http://t.co/O73byneXM2,2014-08-17 3:29,-6.446614055,17.43167631
83,83,"RT @FluTrackers: #Mali - Reported #ebola case who died was a nurse, 1 other possible health care worker being tested http://t.co/zsU7asO7cm‚Ä¶",2014-08-27 8:49,-3.129100821,25.08048218
84,84,RT @SenateApprops Read witness testimony including @SHEA_Epi &amp; other info from today\'s #Ebola hearing: http://t.co/17QKCKnd1U,2014-09-25 1:56,-2.930829058,18.89003743
85,85,Yo Everybody Is Getting Sick Dawg üò≥ Thats That #Ebola Creeping up üòï jk.. I hope üò≠ https://t.co/NkEDB0yrIz,2014-09-01 19:42,-4.868522122,20.98737379
86,86,#KatieHopkins : if #Ebola had a face.,2014-08-01 10:58,-6.67110007,26.06662151
87,87,RT @UNICEF: 2014 could be the year progress to end #measles and #malaria slides back. And it‚Äôs because of #Ebola http://t.co/6SgN1ZxQAK via‚Ä¶,2014-08-06 20:36,-6.26161775,22.03758502
88,88,Remember #Ebola? It\'s Still A Huge Problem - Health Care Edge. http://t.co/xXHHIeaR6j,2014-09-25 21:06,-5.677982206,18.964235
89,89,Rage Against the #Ebola Crematorium. http://t.co/nai944hpUA,2014-08-08 2:27,-4.218145983,19.01854956
90,90,#US nurses strike over insufficient #Ebola protections http://t.co/BGsg1jWb2M http://t.co/b16AZiIHrt,2014-09-26 2:32,-4.129736431,20.57137427
91,91,First @facebook and now @google are asking me for money for #Ebola. What about more relevant diseases?,2014-09-04 12:23,-7.250803174,22.49268139
92,92,"RT @picardonhealth: First Outbreak Quashed, #Ebola Reappears in #Mali  http://t.co/PfzAmGS78Z via @nytimes",2014-09-29 4:11,-4.714474848,20.16588595
93,93,RT @RT_com: #US nurses strike over insufficient #Ebola protections http://t.co/iCYbZDlQkv http://t.co/CYku6t0gVU,2014-09-28 7:25,-5.436152325,20.9512847
94,94,RT @LukeRussert: #USA media needs 2 b more concerned w 22 vets committing suicide a day &amp; vet unemployment rate than #Ebola or #MH370 http:‚Ä¶,2014-08-30 5:22,0.714716456,20.94028352
95,95,#Thomas #Eric Duncans Family Receives Settlementl Over #Ebola #Death - Nov 12 @ 10:06 PM ET http://t.co/WDS21FiQcv,2014-08-02 12:02,-3.723030935,19.66642028
96,96,"RT @EndTimeHeadline: No district has gone untouched in #SierraLeone, where #Ebola has now been detected in every single area of the... http‚Ä¶",2014-08-23 11:54,-4.033078562,22.07793642
97,97,RT @MSF_USA: The #MSF team at #Khost maternity hospital in #Afghanistan supports colleagues fighting #Ebola in West Africa: http://t.co/Fxu‚Ä¶,2014-09-14 3:50,-2.533132826,20.81113355
98,98,Experimental device Hemopurifier from @Aethlon_Medical was used to help treat an #Ebola patient who survived http://t.co/CmjQ8ZzL9l,2014-08-03 19:08,-4.231257501,22.84212485
99,99,Good perspective on how to think about treatment:Out of Africa ‚Äî Caring for Patients with #Ebola http://t.co/ClDzhnEM7q,2014-09-27 22:25,-5.924927995,23.24870723
100,100,"RT @NHPRExchange: Tmrw: NH #Ebola protocol w/ @JoseTMontero. Also, @emerrens, @BrighamWomens Dr. Baden, @pattywight. http://t.co/ozhWXc74XA‚Ä¶",2014-09-06 3:14,-5.76495176,20.31887971
101,101,Programming &amp; Web Solutions http://t.co/RRAH0RqsaD #ebola http://t.co/hNun1EAbub,2014-08-15 13:05,-5.18103522,20.21201469
102,102,Nice report on Partners in Health doctor fighting #Ebola in Sierra Leone on .@NBCNightlyNews. Great org. that could use your #support .@PIH,2014-09-23 16:42,-5.327516284,20.3739423
103,103,"RT @usatodayhealth: Hospital will pay Duncan\'s medical bills, set up charity http://t.co/4lfQ2Z3Wv2 via @USATODAY #ebola",2014-08-31 6:40,-4.763188689,20.01392074
104,104,WHO reports 3 more #Ebola cases in #Mali http://t.co/a0rDhlW2Vo,2014-08-20 3:41,-4.60087327,21.42300874
105,105,RT @amaausmed: .@amapresident has urged Govt to consider deploying AUSMAT teams to join fight against #Ebola in west Africa https://t.co/bU‚Ä¶,2014-08-22 9:00,-3.35385035,20.60251683
106,106,RT @WhySharksMatter: Hey everyone who was reading #OutbreakChat tweets? You now have #ebola . SURPRISE!,2014-09-05 9:06,-3.876624852,18.6193199
107,107,"RT @DavidQuammen: @sethmnookin @stevesilberman Thanks, Seth, Steve. Glad to report Ivory Coast calm, sane, so far #Ebola-free. But a story ‚Ä¶",2014-08-13 11:27,-3.716346725,20.13692643
108,108,"RT @ConservativeGi3: \""@SunNewsNetwork: Injectionless #Ebola vaccine successful in monkeys http://t.co/ZhvG5PhRSL\"",""RT @ConservativeGi3: \""@SunNewsNetwork: Injectionless #Ebola vaccine successful in monkeys http://t.co/ZhvG5PhRSL\"",""Twitter for Android",2014-09-24 20:42,-5.199126159,20.13867036
109,109,#Ebola #EbolaOutbreak Thomas Eric Duncan\'s Family Reaches \'Resolution\' With Dallas Hospital In Ebola Case http://t.co/DIcWjWOUBf,2014-08-04 10:43,-3.487824977,22.99953857
110,110,RT @LukeRussert: #USA media needs 2 b more concerned w 22 vets committing suicide a day &amp; vet unemployment rate than #Ebola or #MH370 http:‚Ä¶,2014-09-01 15:50,-4.065198164,18.27538231
111,111,"UK is building six #ebola facilities in Sierra Leone. First run by Save the Children, second by Aspen Medical with up to $20m Aust funding.",2014-09-05 3:37,-3.739388079,23.34215283
112,112,"Texas: Ebola Victim‚Äôs Family to Be Paid by Hospital, via @nytimes .it can\'t being back #ThomasEricDuncan back. #Ebola http://t.co/YBBQAUu5Et",2014-09-23 13:14,-4.956931423,21.77194441
113,113,RT @EmergencyMgtMag: 5 lessons in crisis communications from the #Ebola response: http://t.co/FgmYLo0BTt,2014-09-23 21:58,-3.242790369,25.7121064
114,114,RT @WhySharksMatter: Hey everyone who was reading #OutbreakChat tweets? You now have #ebola . SURPRISE!,2014-08-09 6:34,-5.868881602,21.98969033
115,115,RT @LukeRussert: #USA media needs 2 b more concerned w 22 vets committing suicide a day &amp; vet unemployment rate than #Ebola or #MH370 http:‚Ä¶,2014-09-19 6:05,-8.886241779,23.94442479
116,116,RT @CIDRAP: Senate committee probes proposed US #Ebola funding http://t.co/0kKkX2Nrri,2014-08-06 9:21,-1.439382444,19.55319837
117,117,TX #Ebola Victim‚Äôs Family Cashes In After Hospital Settlement. You LIE! Portray urself a Victim Get Paid BHOs America http://t.co/EnuHYVFD7E,2014-08-06 8:50,-5.149617002,26.4910271
118,118,RT @MarkMobius: #Ebola hasn‚Äôt affected our decision-making process when it comes to investing in Africa or elsewhere. http://t.co/RndtBuBETH,2014-08-01 18:37,-5.66018641,22.80425081
119,119,RT @YaThinkN: Thank you @antloewenstein about bloody time #Ebola profiteering at expense of qualified NGO was pointed out :( http://t.co/gp‚Ä¶,2014-09-15 14:13,-7.25963935,19.98566163
120,120,RT @LukeRussert: #USA media needs 2 b more concerned w 22 vets committing suicide a day &amp; vet unemployment rate than #Ebola or #MH370 http:‚Ä¶,2014-09-20 2:48,-5.588414611,19.43278294
121,121,RT @JermaineWatkins: This: See... I knew #Ebola was a bigger worldwide threat than they admitted at jump. http://t.co/rtKgzXzwjk,2014-08-16 1:28,-8.444978806,20.42423534
122,122,RT @HazMedSolutions: There were fewer new cases of #Ebola in the week ended Nov. 4 than in any week the prior 3 months. #nytimes graphic ht‚Ä¶,2014-09-05 3:37,-5.384131335,20.06058773
123,123,How Ebola healthcare workers get dressed http://t.co/RuZrVz1gih #ebola #health #tech #workplace #economy,2014-09-25 12:45,-2.745861834,24.04159842
124,124,#US nurses strike over insufficient #Ebola protections http://t.co/vEwkK2U8p6 http://t.co/UPygTXwkbp,2014-09-17 10:56,-3.475300734,21.90880131
125,125,MSNBC On Moderator In NH Getting Facts Wron  http://t.co/A1If3hUpQm   #ebola #ebola-outbreak #health #breaking,2014-09-22 10:30,-0.949139965,20.80342112
126,126,RT @LukeRussert: #USA media needs 2 b more concerned w 22 vets committing suicide a day &amp; vet unemployment rate than #Ebola or #MH370 http:‚Ä¶,2014-09-01 15:31,-5.510774002,23.44623139
127,127,"RT @WhySharksMatter: Interesting, some of the symptoms of #Ebola (bleeding from eyes, passing out, vomit) are also symptoms of watching thi‚Ä¶",2014-09-17 19:03,-5.155200984,18.16920958
128,128,CDC Disease Detective Describes Chasing Ambulances as Part of #Ebola Response. #virus http://t.co/mUyjgavCzc,2014-09-12 4:07,-2.241744636,22.72397681
129,129,"Oil Lamps, Mid Terms, and Tasers! New Episode 49! #Election2014 #NFL #NBCBlacklist #Worldseries#RollTide #ebola  http://t.co/IfJdxcL427",2014-08-03 20:02,-2.021249263,18.05965472
130,130,"YES, YES, YES! \""@PIH: #DrPaulFarmer\'s key principles on the #Ebola response: http://t.co/MJiiJ8k3TD http://t.co/1YtOGHcLGw\"" @Apollos77",2014-08-24 9:49,-4.556411763,24.3305467
131,131,Hey everyone who was reading #OutbreakChat tweets? You now have #ebola . SURPRISE!,2014-08-07 0:02,-2.824861405,22.40087467
132,132,RT @RT_com: #US nurses strike over insufficient #Ebola protections http://t.co/iCYbZDlQkv http://t.co/CYku6t0gVU,2014-08-18 9:55,-2.447724971,24.12604613
133,133,RT @WHO: #Mali‚Äôs Ministry of Health has confirmed the country‚Äôs second #Ebola fatal case in a nurse who worked in Bamako http://t.co/oTsqKS‚Ä¶,2014-08-12 16:55,-3.050918037,23.55939838
134,134,RT @MarkMobius: #Ebola hasn‚Äôt affected our decision-making process when it comes to investing in Africa or elsewhere. http://t.co/RndtBuBETH,2014-08-24 15:35,-4.985509163,20.01869878
135,135,"RT @Laurie_Garrett: Today @UNDP took over payroll at #Liberia MinHlth. Some got paid for 1st time in 3 mos, but I know 2 #Ebola staff got 1‚Ä¶",2014-09-24 10:08,-3.674362273,22.50473493
136,136,"A company is out of #Ebola-virus stuffed animals after selling \""thousands and thousands\"" of them: http://t.co/bxTXZOWfIh",2014-09-10 20:01,-4.927774412,24.46817607
137,137,CBS\' Logan quarantined after Ebola report   http://t.co/rfjFafENJi  #ebola #laralogan #southafrica,2014-08-12 8:32,-5.342872469,22.06191959
138,138,Human testing has sparked an ethical debate over how to study unproven medicines amid the #Ebola outbreak. http://t.co/cnHT5R6zxs,2014-08-29 13:56,-4.731128978,20.65206537
139,139,"\""@UNICEF: One solution. Meet Aminata, who works at a centre producing chlorine in #Guinea http://t.co/woB3VL2zbq #Ebola\"" @Apollos77",2014-08-14 5:10,-1.226235187,20.48635849
140,140,#US doctor released after being cleared of #Ebola   #TNN http://t.co/HBJoF7vMb4,2014-08-12 20:41,-3.941413004,19.20027424
141,141,.@amapresident has urged Govt to consider deploying AUSMAT teams to join fight against #Ebola in west Africa https://t.co/bUeKP6cEcd #auspol,2014-08-15 8:59,-1.999315812,22.69303749
142,142,RT @GOPTeens: #Teens: Elect a #Republican Senate -- less #American cases of #Ebola.#Coincidence?,2014-08-09 13:47,-2.553869134,19.59910013
143,143,They ask you to wear mask at the hospital if you have been out of the country in the past 21 days or if you have a bad cough. #ebola,2014-09-14 5:27,-2.085787567,16.71521133
144,144,RT @LukeRussert: #USA media needs 2 b more concerned w 22 vets committing suicide a day &amp; vet unemployment rate than #Ebola or #MH370 http:‚Ä¶,2014-08-16 10:00,-1.338289163,19.25839219
145,145,RT @LukeRussert: #USA media needs 2 b more concerned w 22 vets committing suicide a day &amp; vet unemployment rate than #Ebola or #MH370 http:‚Ä¶,2014-09-06 15:30,0.299074443,18.7498299
146,146,RT @RT_com: #US nurses strike over insufficient #Ebola protections http://t.co/iCYbZDlQkv http://t.co/CYku6t0gVU,2014-08-17 16:57,-2.581640822,20.1497371
147,147,RT @GOPTeens: #Teens: Elect a #Republican Senate -- less #American cases of #Ebola.#Coincidence?,2014-09-11 22:40,-4.252157337,19.14752717
148,148,RT @UNinBrussels: #Ebola: @WHO says experimental vaccine trials in West Africa could begin by January http://t.co/ji5kzOaxr9  #EbolaResponse,2014-09-19 0:50,-3.256167962,23.25777508
149,149,RT @blacklooks: A history of medical killers in #Africa #Ebola #HIV #poison #sterilisation http://t.co/5YMrdH0j86 cc @ducorwriter V/ @afriq‚Ä¶,2014-09-07 10:18,-3.45314847,22.93740526
150,150,Clinical Care of Two Patients with #Ebola Virus Disease in the United States http://t.co/IBMRuL8C8z,2014-08-31 2:34,-7.436942569,22.01916846
151,151,RT @RT_com: #US nurses strike over insufficient #Ebola protections http://t.co/iCYbZDlQkv http://t.co/CYku6t0gVU,2014-08-08 14:53,-1.470059114,14.27296496
152,152,"RT @SavetheChildren: #Ebola Crisis at a \""Tipping Point:\"" 2.5 Million Children under 5 Live in Affected Areas http://t.co/6Rgwvi5OJw",2014-08-19 5:56,-3.058254553,20.31449372
153,153,"As #Ebola takes lives in #Liberia, it leaves hunger in its wake: Sogbondo Raylo carries a‚Ä¶ http://t.co/n6TOJ4ebhQ",2014-09-17 6:58,-2.809193443,21.38713988
154,154,RT @PHammondMP: Good to meet @presidentkoroma Impressed at his commitment to keep fighting #Ebola http://t.co/XImMIu9Nt4,2014-09-08 8:14,-3.992375931,22.64956481
155,155,"RT @SavetheChildren: #Ebola Crisis at a \""Tipping Point:\"" 2.5 Million Children under 5 Live in Affected Areas http://t.co/6Rgwvi5OJw",2014-09-25 13:39,-7.191537064,21.51870944
156,156,"US nurses to protest, strike over #Ebola measures | http://t.co/2mlWbxNTWg",2014-09-23 12:23,-5.775874329,22.64854157
157,157,"RT @jsgaetano: #ImpeachPerry, he won\'t #SealTheBorders. Plus he let #Ebola into the US! @jhoffman2022",2014-09-15 13:28,-5.399422593,23.94667691
158,158,Caught the feelings. #ebola,2014-08-19 12:26,-1.153915423,24.21540931
159,159,"#Ebola U.S. nurses hold strikes, protests over Ebola measures   http://t.co/EuY2hKT9jP http://t.co/tPIdbSdvDN",2014-08-21 18:44,-3.630385979,22.72130161
160,160,I\'m pretty sure it\'s bad when you cough so hard that you can taste blood. #Ebola  ? üò∑,2014-08-18 19:15,-3.233052024,19.33440301
161,161,RT @BCNewsWire: #Mali races to contain new #Ebola outbreak as deaths worldwide top 5000 #worldpoli - http://t.co/I64Va8OviA,2014-08-10 23:53,-3.141965478,24.9064562
162,162,RT @Oritavancin: No evidence the Ebola vaccine causes autism!#autism #aspergers #Psychiatry #healthcare #CDCwhistleblower #ebolahttp://‚Ä¶,2014-08-27 15:24,-4.037802898,23.04559611
163,163,RT @LukeRussert: #USA media needs 2 b more concerned w 22 vets committing suicide a day &amp; vet unemployment rate than #Ebola or #MH370 http:‚Ä¶,2014-08-22 16:49,-1.439841924,21.76750447
164,164,"RT @neva9257: It‚Äôs been fun/awful playing at #OutbreakChat, but remember: donate to aid orgs working in #Ebola -affected countries http://t‚Ä¶",2014-09-24 13:10,-3.043232687,25.30801453
165,165,RT @LukeRussert: #USA media needs 2 b more concerned w 22 vets committing suicide a day &amp; vet unemployment rate than #Ebola or #MH370 http:‚Ä¶,2014-08-25 19:01,-4.359772586,25.45484045
166,166,RT @GOPTeens: #Teens: Elect a #Republican Senate -- less #American cases of #Ebola.#Coincidence?,2014-09-20 3:47,-3.977228365,18.29506226
167,167,Fox News says fighting Ebola is a \'boondoggle\' - http://t.co/VA4yCH5ll9 #ebola,2014-08-13 11:48,-2.788434547,19.74409355
168,168,20000 California Nurses Go On Strike - Ebola Fears - http://t.co/t1onpv0RmZ #ebola,2014-09-16 13:27,-5.42759271,16.13969703
169,169,RT @Barbi_Twins: Hendry Co defends #monkey breeding lab negligence including #Ebola-Typical&gt;govt protects biz over bodies @JVM @ALDF http:/‚Ä¶,2014-08-25 4:00,-6.168835903,25.74635971
170,170,RT @blacklooks: A history of medical killers in #Africa #Ebola #HIV #poison #sterilisation http://t.co/5YMrdH0j86 cc @ducorwriter V/ @afriq‚Ä¶,2014-08-06 1:55,-2.417815126,20.87495599
171,171,Pregnant women in #Liberia at inc. risk of complications and death due to fear of #ebola http://t.co/rhkvzqUUiy,2014-09-28 6:41,-5.112155884,23.91217617
172,172,"RT @Laurie_Garrett: Today @UNDP took over payroll at #Liberia MinHlth. Some got paid for 1st time in 3 mos, but I know 2 #Ebola staff got 1‚Ä¶",2014-08-30 3:08,-6.727099916,20.13979894
173,173,RT @GSK: ‚ÄòThe fight against #Ebola needs big pharma on board‚Äô @wellcometrust article in @FT: http://t.co/Nt9n5qB9ZU (subscription req.),2014-08-18 6:53,-6.914035694,24.36298157
174,174,We\'re so bad at assessing real risküòå. #Ebola http://t.co/4smn08BTYw @hp_ems,2014-09-22 14:30,-3.313599453,21.23179947
175,175,"RT @SavetheChildren: #Ebola Crisis at a \""Tipping Point:\"" 2.5 Million Children under 5 Live in Affected Areas http://t.co/6Rgwvi5OJw",2014-08-19 13:01,-2.373787039,21.81898831
176,176,RT @GOPTeens: #Teens: Elect a #Republican Senate -- less #American cases of #Ebola.#Coincidence?,2014-08-06 15:02,-4.127370534,21.0037198
177,177,@bfrist Fmr. Senator Bill Frist makes the case for us to stay on the offensive re: #Ebola #EbolaCrisis #publichealth http://t.co/YSrv0yFU1T,2014-08-30 14:49,-3.270462373,22.52935904
178,178,brother @RobertBornAgain #Ebola is a lie as well. it‚Äôs all a part of bringing #agenda21 to the forefront. the RFID chips will be here TBC,2014-08-24 23:47,-3.722013901,19.54370557
179,179,Does an #Ebola Outbreak Trump the #HIPAA #Privacy Rule? http://t.co/sRPjLFhusK,2014-08-17 14:20,-5.20970055,25.43484418
180,180,RT @whittington_amy: #climatechange and #Ebola to be discussed but only part of agenda @JoeHockey @TheSourceNews1,2014-09-24 22:49,-6.462240063,19.5512624
181,181,RT @wessmith123: The U.S. is now #Ebola Free! Fox must be FREAKING OUT! #UniteBlue #TNTweeters #LibCrib http://t.co/GmjcPnGgid http://t.co/‚Ä¶,2014-09-14 3:56,-0.034675641,23.73247547
182,182,"RT @neva9257: It‚Äôs been fun/awful playing at #OutbreakChat, but remember: donate to aid orgs working in #Ebola -affected countries http://t‚Ä¶",2014-09-02 11:58,-2.050104976,22.93202651
183,183,#climatechange and #Ebola to be discussed but only part of agenda @JoeHockey @TheSourceNews1,2014-08-09 3:40,-5.73037227,20.81331219
184,184,RT @McCarthyism101: #Ebola is our beautiful creation.A Frankenstein we deliberately let loose from our laboratories. Our #Agenda21! Now suc‚Ä¶,2014-08-04 11:48,-3.481967867,21.7244458
185,185,@dancapper it‚Äôs more a comment on the fascination with experimental treatments in the #Ebola outbreak. @WhySharksMatter,2014-09-08 17:41,-3.028900318,22.58657715
186,186,How #Africa And Africans Are Responding To The #Ebola Crisis #liberia #epidemiology http://t.co/ioKVeFjTYr,2014-09-23 2:26,-5.587549849,20.9860481
187,187,RT @GlobalGenes: BREAKING NEWS! Twins with rare genetic disorder could hold clue to cure for #Ebola http://t.co/gtxRjG9Ol9 @HempelFamily #N‚Ä¶,2014-09-11 21:16,-2.679164966,23.16056895
188,188,"RT @JohnFarrier: Wow... For every $1 you donate to fight #Ebola, @Google will donate $2: https://t.co/eo4K9xRl5K",2014-09-06 3:23,-2.288416704,20.20030943
189,189,"RT @neva9257: It‚Äôs been fun/awful playing at #OutbreakChat, but remember: donate to aid orgs working in #Ebola -affected countries http://t‚Ä¶",2014-09-15 17:34,-6.081912878,21.90081702
190,190,RT @wef: What #economics can teach us about the spread of #Ebola http://t.co/OukaYQJg2R http://t.co/VQ6VQZGQyU,2014-08-24 10:25,-5.076322342,22.55187138
191,191,@rotary spoke to The Rotary Club of Atlantic City about #Ebola http://t.co/Zj9JiAZ17h,2014-09-23 15:57,-7.085855033,20.0323772
192,192,RT @archithFox46: Find out what\'s being done to honor the 1st US patient who died from the #Ebola virus at 10 #charlotte #clt @myfoxdfw htt‚Ä¶,2014-08-03 4:27,-5.632655483,20.56477762
193,193,RT @archithFox46: Find out what\'s being done to honor the 1st US patient who died from the #Ebola virus at 10 #charlotte #clt @myfoxdfw htt‚Ä¶,2014-08-06 20:59,-5.809078648,24.64477818
194,194,Online Homeland security: #Guinea - #Ebola #Virus #Disease http://t.co/1vbSeJfFyM,2014-09-29 1:17,-1.863118289,27.50780717
195,195,"RT jsgaetano: #ImpeachPerry, he won\'t #SealTheBorders. Plus he let #Ebola into the US! jhoffman2022",2014-09-27 19:18,-3.2337578,21.57497467
196,196,"RT @ArdenBarry: Perspective: #Ebola is rampant in west Africa while American scientists are busy discovering the \""stupidity\"" virus: http://‚Ä¶",2014-08-28 18:33,-3.526145031,22.17939687
197,197,RT BreLink_12: RT _autumnbree: The real suspect in question is Cady Heron #MeanGirls #Ebola #TwitterJoke https://t.co/Ta7OM7UW0A,2014-09-22 10:58,-5.767831422,21.37658544
198,198,I\'m Tumblin\' to: http://t.co/BzMWRvGVu4#Ebola http://t.co/7pmP7LapI9,2014-09-03 8:39,-4.788577493,22.69166895
199,199,RT @RT_com: #US nurses strike over insufficient #Ebola protections http://t.co/iCYbZDlQkv http://t.co/CYku6t0gVU,2014-08-27 23:36,-4.151666776,22.98224278
200,200,2014 #Ebola Outbreak in West #Africa @CDCgov http://t.co/3IAHxPjTC1 | Condolences to all those who lost loved ones http://t.co/DcbyKqaDzm,2014-09-20 9:04,-4.022204223,19.92587125
201,201,http://t.co/CVJbFdXUNu Planning a vacay? The UN highly Recommends these Premier #Ebola Destinations #Other Pandemic News,2014-09-19 4:57,-3.077056475,22.27934963
202,202,"RT @neva9257: It‚Äôs been fun/awful playing at #OutbreakChat, but remember: donate to aid orgs working in #Ebola -affected countries http://t‚Ä¶",2014-08-31 11:22,-4.505987745,23.31663657
203,203,@NealHandel @GRMediaFirm @radar_online Time to stop gawking at the Kardashians and get to work on #Ebola and a #cleansexlife.,2014-09-22 16:12,-0.28752481,21.84273173
204,204,"RT neva9257: It‚Äôs been fun/awful playing at #OutbreakChat, but remember: donate to aid orgs working in #Ebola -a... http://t.co/zGetRYEZhv",2014-09-09 9:03,-1.980166233,22.16814317
205,205,"RT @healthmap: ICYMI! Highlights of most recent @WHO #Ebola SitRep live at: http://t.co/0BC5W86Fv3 - 4 deaths in #Mali, 421 new cases in #S‚Ä¶",2014-09-13 17:48,-0.937131193,26.32976266
206,206,@CBS\' #LaraLogan Self-Quarantines Following Trip To #Liberia - http://t.co/O0qTg2s3ut #Ebola,2014-09-23 16:08,0.053168739,22.65480313
207,207,"RT @picardonhealth: First Outbreak Quashed, #Ebola Reappears in #Mali  http://t.co/PfzAmGS78Z via @nytimes",2014-08-22 23:36,-6.979031061,20.37857932
208,208,Les Roberts ‚Äì ‚ÄúDay 39: The plural of anecdote is not data‚Äù #Ebola http://t.co/BDLWSDxPQ9 http://t.co/P4qlBYj8bc,2014-08-27 19:00,-4.379216533,21.3433245
209,209,"#ImpeachPerry, he won\'t #SealTheBorders. Plus he let #Ebola into the US! @jhoffman2022",2014-09-18 2:33,-2.026342668,27.12954171
210,210,RT @_autumnbree: The real suspect in question is Cady Heron #MeanGirls #Ebola #TwitterJoke https://t.co/KYreJqQAuj,2014-08-18 9:24,-4.950611152,23.64361996
211,211,"It‚Äôs been fun/awful playing at #OutbreakChat, but remember: donate to aid orgs working in #Ebola -affected countries http://t.co/MpKWDaqegz",2014-09-15 11:30,-7.007232571,22.62645245
212,212,"RT @tarahaelle: And remember, IRL the actual #Ebola outbreak is no joke. Three more cases in Mali. http://t.co/9BFHt5mV2X #OutbreakChat",2014-09-05 10:46,-3.811173865,21.09240179
213,213,RT @WHO: #Mali‚Äôs Ministry of Health has confirmed the country‚Äôs second #Ebola fatal case in a nurse who worked in Bamako http://t.co/oTsqKS‚Ä¶,2014-09-19 21:09,-5.324484669,22.23277403
214,214,"RT @ONECampaign: NEWS: More than 14,000 #Ebola cases (including 4 now confirmed in Mali) &amp; more than 5,100 deaths http://t.co/WWxHYheIOS vi‚Ä¶",2014-08-08 6:48,0.131825311,21.05734589
215,215,I\'m Tumblin\' to: http://t.co/BzMWRvGVu4#ebola,2014-08-24 7:41,-3.919210954,21.93654117
216,216,DRC: #Ebola Virus Disease DREF Operation n¬∞ MDRCD015 Operations update n¬∞ 1 http://t.co/tWW7aPnJXp via @reliefweb #DRC,2014-08-01 20:47,-3.04637595,23.78169168
217,217,RT @buissonnierem: ‚Äú@MSF: Any questions about #Ebola? Sign up for #MSF\'s new e-learning platform about the virus http://t.co/WD2kxGESBA htt‚Ä¶,2014-08-14 1:57,-4.061254099,21.28424092
218,218,"RT @theIRC: From the front lines of the #Ebola crisis, a photo essay by @Peter_Biro on @dailybeast: http://t.co/JIpvAMs6Qb http://t.co/4GtE‚Ä¶",2014-08-01 17:59,-1.627728832,24.18909939
219,219,#HHS #Secretary #asks #agency #to #welcome #back #colleagues #returning #from #Ebola ‚Ä¶: Health and Human Services‚Ä¶ http://t.co/KveAB5c5u0,2014-09-29 6:58,-1.730011125,21.23644646
220,220,"So it\'s official, right? #Elections cure #Ebola.",2014-08-13 11:12,-4.613801602,23.57949174
221,221,"RT @tarahaelle: And remember, IRL the actual #Ebola outbreak is no joke. Three more cases in Mali. http://t.co/9BFHt5mV2X #OutbreakChat",2014-08-17 13:39,-3.697134033,21.48573435
222,222,"RT @PeterSinger: My latest Project Syndicate column is on #Ebola, our research priorities &amp; the #ethics of developing a new treatment http:‚Ä¶",2014-08-14 0:36,-3.950451613,23.91824306
223,223,Online Homeland security: #Guinea - #Ebola #Virus #Disease http://t.co/nD7xXEP1wO,2014-09-09 13:10,-2.738830866,24.43255919
224,224,"RT @tarahaelle: And remember, IRL the actual #Ebola outbreak is no joke. Three more cases in Mali. http://t.co/9BFHt5mV2X #OutbreakChat",2014-09-02 21:08,-5.90269769,23.08084341
225,225,The real suspect in question is Cady Heron #MeanGirls #Ebola #TwitterJoke https://t.co/KYreJqQAuj,2014-09-16 19:30,-6.605626025,20.69171565
226,226,RT @LukeRussert: #USA media needs 2 b more concerned w 22 vets committing suicide a day &amp; vet unemployment rate than #Ebola or #MH370 http:‚Ä¶,2014-09-22 11:18,-0.12116482,22.02817975
227,227,RT @LukeRussert: #USA media needs 2 b more concerned w 22 vets committing suicide a day &amp; vet unemployment rate than #Ebola or #MH370 http:‚Ä¶,2014-09-28 6:05,-3.800798982,22.77422829
228,228,"And remember, IRL the actual #Ebola outbreak is no joke. Three more cases in Mali. http://t.co/9BFHt5mV2X #OutbreakChat",2014-09-13 19:28,-4.494634631,21.64645402
229,229,the #Ebola #outbreak only shows how poor the #healthcare system is in #Guinea . Now there\'s some #motivation for a #publichealth #degree,2014-08-14 8:38,-5.885332757,21.56040116
230,230,RT @theOFDA: Big issue in #Ebola response is personal protective equip. @USAID launched grand challenge to make PPE safer http://t.co/Q5P4A‚Ä¶,2014-08-16 19:06,-5.911872635,16.43977311
231,231,Find out what\'s being done to honor the 1st US patient (Thomas Eric Duncan) who died from the #Ebola virus in 10 mins #charlotte #clt @FOX4,2014-08-10 10:50,-3.868934137,22.36529858
232,232,@MSNBC\'s Chris Hayes Rips Media ( @FoxNews @CNN)  For Fearmongering Concerning #Ebola - http://t.co/DWvFyDHkFu #UniteBlue @UniteBlue,2014-09-26 15:35,-1.322306831,23.98095424
233,233,"Clinician @DanKelly_MD returning from Sierra Leone \""more hopeful than ever\"" that #Ebola will be eradicated http://t.co/LPxCjPJs0G via @UCSF",2014-08-01 17:17,-2.211193841,23.75015186
234,234,RT @ONEgirlswomen: MUST read: One in 7 women risk dying in childbirth in #Ebola-hit countries http://t.co/i7fSNOFgzG via @ReutersAfrica,2014-08-12 15:33,-1.72477892,22.86270565
235,235,"RT @picardonhealth: First Outbreak Quashed, #Ebola Reappears in #Mali  http://t.co/PfzAmGS78Z via @nytimes",2014-09-29 3:21,-2.740273321,20.92169697
236,236,RT @YaThinkN: Thank you @antloewenstein about bloody time #Ebola profiteering at expense of qualified NGO was pointed out :( http://t.co/gp‚Ä¶,2014-09-11 12:23,-6.99008221,21.21069486
237,237,"\""The End of #Racism\"" http://t.co/50VHEHlS7o  #islam #Africa #Ebola #uk #USA #Christ #Nigeria #bible #jesus",2014-09-14 15:46,-5.506489129,19.61027187
238,238,RT @GOPTeens: #Teens: Elect a #Republican Senate -- less #American cases of #Ebola.#Coincidence?,2014-08-30 3:34,-5.144747938,22.63063293
239,239,RT @LukeRussert: #USA media needs 2 b more concerned w 22 vets committing suicide a day &amp; vet unemployment rate than #Ebola or #MH370 http:‚Ä¶,2014-09-25 11:24,-3.975627,25.03963092
240,240,RT @SusanWojcicki: Google matches $2 for every $1 donated in the fight against Ebola. Join the fight! #Ebola http://t.co/B8DLzqFLv4),2014-08-20 21:08,-3.087619984,25.65529305
241,241,Exploring This Season‚Äôs Continuity Experiment On #SouthPark http://t.co/mWgj3MSaaw via @UPROXX #Redskins #Ebola #Lorde #Freemium #TVbiz,2014-08-04 18:45,-3.451740051,26.02822411
242,242,Ask #G20 to stop companies #taxdodging NOW so poor countries can invest in healthcare! #TaxPower http://t.co/CpbX5V6Bzx #Ebola,2014-08-02 22:58,-1.54002243,24.09799675
243,243,Top #US Officials ask #Congress 4 help 2 the tune of 6.2B for the fight against #Ebola http://t.co/a7swyPA3xk via @YahooNews,2014-09-20 17:38,-0.715843259,23.53692586
244,244,RT @RT_com: #US nurses strike over insufficient #Ebola protections http://t.co/iCYbZDlQkv http://t.co/CYku6t0gVU,2014-09-14 3:25,-1.88388446,19.78953987
245,245,"RT @nancylindborg: In fight against #Ebola, we MUST stay flexible &amp; agile - As @JeremyKonyndyk says  - we can\'t take foot off gas pedal. ht‚Ä¶",2014-09-14 17:22,-7.01150975,25.04596434
246,246,RT @LukeRussert: #USA media needs 2 b more concerned w 22 vets committing suicide a day &amp; vet unemployment rate than #Ebola or #MH370 http:‚Ä¶,2014-08-15 19:16,-4.215149753,21.49855439
247,247,RT @CDCgov: #CDCintheField from Jana: Presenting outline of social mobilization activities to increase public awareness on #Ebola http://t.‚Ä¶,2014-09-14 11:32,-4.294648616,22.46023631
248,248,RT @CDCgov: Unsafe burial practices are a major cause of new #Ebola cases in Sierra Leone. This week\'s #EbolaBigIdea is SAFE BURIALS SAVE L‚Ä¶,2014-09-12 0:46,-8.454583009,24.09179408
249,249,".....then, the #KimKardashian photo shoot was released and everyone forgot that they were terrified of #Ebola.",2014-08-22 20:51,-0.291633712,22.37167485
250,250,"RT @picardonhealth: First Outbreak Quashed, #Ebola Reappears in #Mali  http://t.co/PfzAmGS78Z via @nytimes",2014-09-16 22:05,-3.910379486,22.63922156
251,251,"RT @tweetybird2009: @AlverezAmanda I\'m sure #Obama will try to get some of that 6.2 #billion to his country, just to keep #Ebola out!",2014-08-24 21:18,-1.33855296,22.40317562
252,252,RT @SavetheChildren: Your #Ebola donation will help now more than ever. @Google will give $2 for each $1 you donate http://t.co/D9lTC93NIy ‚Ä¶,2014-08-04 19:20,-4.077485577,22.88453396
253,253,RT @CDCgov: Sierra Leone is fighting #Ebola and educating its residents one big idea at a time. This week\'s #EbolaBigIdea is SAFE BURIALS S‚Ä¶,2014-08-20 0:56,-3.255053578,20.32391218
254,254,Find out what\'s being done to honor the 1st US patient who died from the #Ebola virus at 10 #charlotte #clt @myfoxdfw http://t.co/yXr7fxK2rL,2014-08-29 5:12,-5.812801629,21.98350563
255,255,Our #hospital is safer since #Ebola #bonsecours #stfrancis,2014-08-28 3:42,-1.699651409,20.64151052
256,256,"#Ebola death toll tops 5,000; steep rise in Sierra Leone cases: WHO http://t.co/PgOHIkxHOr via @feedly",2014-09-19 1:25,-2.978456035,23.13793952
257,257,Interactive #Ebola outbreak timeline http://t.co/TkAhI4oeu6,2014-08-08 16:08,-5.111777771,18.6727022
258,258,ChuckCJohnson joins me #GOTNEWS #EBOLA #FERGUSON #UPDATES #TCOT LISTEN-&gt; http://t.co/AvEWODyU4R,2014-08-29 11:26,-4.635459495,21.52064495
259,259,"Fun Fact: Bea told me she prefers hanging out with black boys instead of me, her Bestfriend. #ebola #wut",2014-09-14 10:12,-3.708054548,22.26191122
260,260,RT @YaThinkN: Thank you @antloewenstein about bloody time #Ebola profiteering at expense of qualified NGO was pointed out :( http://t.co/gp‚Ä¶,2014-09-23 1:23,-6.750059513,19.39643126
261,261,RT @LukeRussert: #USA media needs 2 b more concerned w 22 vets committing suicide a day &amp; vet unemployment rate than #Ebola or #MH370 http:‚Ä¶,2014-09-23 9:07,-4.160056274,24.89743097
262,262,RT @DavidFisman: @AMREFCanada thanks for an amazing and stimulating evening.  Great discussion on #ebola in context.,2014-09-25 5:03,-5.367970846,24.02467678
263,263,RT @ONECampaign: SHOCKING: One in 7 women risk dying in #childbirth in #Ebola-hit countries  http://t.co/nf2gA7CQxC via @Reuters http://t.c‚Ä¶,2014-09-26 16:03,-6.728652011,22.01938912
264,264,RT @EbolaOutbreakUS: RT Minnesota loses track of people being Monitored for Ebola in #Minnesota ! http://t.co/64BJkQKcRG #Ebola Gander Moun‚Ä¶,2014-09-07 17:48,-3.815918057,21.3142359
265,265,‚Äú@YouAintBaut_It: @kyledrane  üòÇüòÇüòÇüòÇüòÇüòÇüòÇ‚Äù now get out my mentions and get to the doctor. #ebola,2014-09-25 18:30,-5.388197992,24.33899502
266,266,"First Outbreak Quashed, #Ebola Reappears in #Mali  http://t.co/PfzAmGS78Z via @nytimes",2014-08-29 14:03,-3.075921591,24.42245488
267,267,"RT @Scrivener3: #Ebola Outbreak Deaths Pass 5,000TOTAL DEATHS = 5,160INFECTED = &gt; 14,000http://t.co/TDsJCuMtsG http://t.co/Z4hgwzgnBl",2014-08-17 20:38,-1.518771377,21.84897848
268,268,RT @YaThinkN: Thank you @antloewenstein about bloody time #Ebola profiteering at expense of qualified NGO was pointed out :( http://t.co/gp‚Ä¶,2014-09-17 22:29,-4.329890489,19.66796484
269,269,Review Into ¬£200K Academy Heads\' Salaries http://t.co/eHZ9CqnZil #skynews #ebola #iphonewallpaper #hdwallpaper,2014-09-06 17:31,-8.152857151,20.18396942
270,270,RT @GOPTeens: #Teens: Elect a #Republican Senate -- less #American cases of #Ebola.#Coincidence?,2014-09-14 17:50,-3.274787769,19.79609414
271,271,"RT @KentPage: Sierra Leone: #Ebola social mob work coordinated by @UNICEFSL has put out 200K posters, 40K factsheets &amp; 1.5M SMS http://t.co‚Ä¶",2014-08-27 7:44,-6.760856806,18.81458234
272,272,"@andrewwlittle: more important issues facing humanity? #Ebola #SyriaCrisis. If we can\'t solve those, be thankful we can do #CometLanding",2014-08-18 16:59,-4.791957435,20.00733281
273,273,unbelievable RT @steve1johnson: This is staggering...Eyewitness to Hell: Life in #Ebola-Ravaged Liberia http://t.co/qvLGRQZIH6,2014-08-24 20:06,-6.301613312,17.17820713
274,274,"RT @loudobbsnews: The #Obama WH needs $6.2B to fight #Ebola, but the @UN is only asking for $1B.  Sen @JohnBoozman explains #LouDobbsTonight",2014-09-26 10:48,-3.748216125,20.19859306
275,275,RT @PlexusVentures: #Fujifilm says its #flu drug is an #Ebola solution in waiting - @FierceBiotech: http://t.co/Hg81TiIGrc #biotech,2014-09-19 3:35,-3.574485107,22.82388511
276,276,@AHAhospitals urges Congress to dedicate funding for #hospital #Ebola preparedness http://t.co/y5O4VxKcwj,2014-08-18 4:20,-3.167017726,22.71778551
277,277,"RT @WhySharksMatter: #ProTip Parents, believe your children when they talk about imaginary friends, they may be #ebola carriers. #OutbreakC‚Ä¶",2014-09-11 4:49,-2.654351428,18.93190064
278,278,Online Homeland security: #Sierra #Leone - #Ebola Virus Disease http://t.co/aqECv6lMu8,2014-09-22 5:41,-5.427559616,19.41367776
279,279,RT @girlslovecj_: Hot Nigga RemixüòÇ@Mrsamiamtv #shmoneyremix  #AfricansBeLike #Ebola https://t.co/AKJt61yLTl,2014-09-29 9:51,-3.324916664,18.79618786
280,280,RT @blacklooks: A history of medical killers in #Africa #Ebola #HIV #poison #sterilisation http://t.co/5YMrdH0j86 cc @ducorwriter V/ @afriq‚Ä¶,2014-09-03 5:34,-0.531161488,22.01739421
281,281,"RT @WhySharksMatter: #ProTip Parents, believe your children when they talk about imaginary friends, they may be #ebola carriers. #OutbreakC‚Ä¶",2014-09-18 2:23,0.194981004,23.6836659
282,282,Be careful or you may catch \'Fearbola\' http://t.co/QMfz3HvUyg via @HuffPostCaLiv #cdnpoli #cdnhealth #ebola #publichealth #scicomms,2014-08-16 7:21,-7.453336224,25.59078726
283,283,Ebola Outbreaks Hot SpotsüíÄhttp://t.co/lwD18ZJko1üíÄ #Ebola #Africa #RedCross #WHO #UN #USA #UK#Canada #Australia #RT,2014-08-14 18:21,-2.180544569,25.67382833
284,284,RT @YannMSF: #Ebola: #MSF Online Briefing Now Available to the Public  http://t.co/WqSnY8W8hL http://t.co/Qo9BVL3FrC,2014-09-05 16:11,0.126660929,22.46698687
285,285,RT @ONECampaign: SHOCKING: One in 7 women risk dying in #childbirth in #Ebola-hit countries  http://t.co/nf2gA7CQxC via @Reuters http://t.c‚Ä¶,2014-09-14 12:25,-5.382514899,22.29897677
286,286,#Ebola victim Eric Duncan‚Äôs family has settled $$$ with Dallas hospital.TX has a cap on Frivolous lawsuits anyway.  http://t.co/NNcJ1yRC2M,2014-08-27 17:24,-4.728430207,23.612302
287,287,RT @mercycorps: Skyrocketing food costs &amp; a decrease in income are part of the economic toll caused by #Ebola. Read more: http://t.co/Zv14Q‚Ä¶,2014-09-24 19:27,-6.270068698,21.08765444
288,288,"RT @SavetheChildren: #Ebola Crisis at a \""Tipping Point:\"" 2.5 Million Children under 5 Live in Affected Areas http://t.co/6Rgwvi5OJw",2014-09-21 12:14,-4.705066799,22.34276015
289,289,"RT @RT_com: #Ebola death toll surpasses 5,000 - WHO http://t.co/vdsIIjJoQE http://t.co/NvufkGGuCm",2014-09-22 15:36,-6.69690747,18.54440925
290,290,RT @YaThinkN: Thank you @antloewenstein about bloody time #Ebola profiteering at expense of qualified NGO was pointed out :( http://t.co/gp‚Ä¶,2014-09-05 22:09,-7.322779898,20.96032445
291,291,RT @RT_com: #US nurses strike over insufficient #Ebola protections http://t.co/iCYbZDlQkv http://t.co/CYku6t0gVU,2014-09-22 9:55,-3.156785223,20.64379038
292,292,Online Homeland security: #Sierra #Leone - #Ebola Virus Disease http://t.co/k6cGqoKXcY,2014-08-10 4:19,-7.158573107,20.5083402
293,293,RT @CDCgov: #CDCintheField from Jana: Presenting outline of social mobilization activities to increase public awareness on #Ebola http://t.‚Ä¶,2014-09-24 10:16,-4.272523874,23.02306773
294,294,RT @PolitiFact: Release of NY doctor means there are no known cases of #Ebola in the U.S. Here\'s our most recent checks on the virus. http:‚Ä¶,2014-08-24 0:15,-2.933645785,18.66892608
295,295,"RT @WhySharksMatter: #ProTip Parents, believe your children when they talk about imaginary friends, they may be #ebola carriers. #OutbreakC‚Ä¶",2014-08-03 12:29,-0.541734249,22.39553885
296,296,#Ebola death toll passes 5000 - Belfast Telegraph http://t.co/MqicspyMnd,2014-08-18 12:10,-1.362552196,24.93888735
297,297,RT @SusanWojcicki: Google matches $2 for every $1 donated in the fight against Ebola. Join the fight! #Ebola http://t.co/B8DLzqFLv4),2014-08-17 16:43,-8.074073624,21.09681557
298,298,RT @EbolaPlan: #Ebola Ebola: for-profit disaster capitalists are already out looking to make money f  http://t.co/pJ6a8MhvlO http://t.co/tl‚Ä¶,2014-08-30 23:40,-4.582274833,21.95379402
299,299,RT @EI_EcoNewsfeed: .@EcoInternet Mali reports 2 new #Ebola deaths in capital: Canadian Press http://t.co/Zf5xs6ihnK *MORE @EI_Ebola http:/‚Ä¶,2014-08-04 15:28,-5.228967858,24.44521804
300,300,"RT @MelissaTweets: If #Ebola and #Gruber tweet on Twitter and media ignores it, do they exist?",2014-08-06 17:20,-3.035395973,24.64066027
301,301,RT @YaThinkN: Thank you @antloewenstein about bloody time #Ebola profiteering at expense of qualified NGO was pointed out :( http://t.co/gp‚Ä¶,2014-08-29 0:15,-3.074645959,19.91383383
302,302,RT Minnesota loses track of people being Monitored for Ebola in #Minnesota ! http://t.co/64BJkQKcRG #Ebola Gander Mountain #mnwild #NYC,2014-08-27 9:24,-2.897283045,20.97886527
303,303,RT @advtecllc: @GulpClearWater  #technology to #STOP #EBOLA #savetheworldswater and our #Earth is here! http://t.co/bbh0Nbsgp1 WHO CARES? T‚Ä¶,2014-08-24 10:23,-4.690253201,21.19684921
304,304,"RT @WhySharksMatter: #ProTip Parents, believe your children when they talk about imaginary friends, they may be #ebola carriers. #OutbreakC‚Ä¶",2014-09-25 12:46,-7.677012676,20.63457616
305,305,"RT @SavetheChildren: #Ebola Crisis at a \""Tipping Point:\"" 2.5 Million Children under 5 Live in Affected Areas http://t.co/6Rgwvi5OJw",2014-09-10 17:41,-9.015475997,19.93006989
306,306,#OtherExcusesForDemLosses Libs were afaid #Ebola was in the voting booths,2014-09-08 16:18,-1.460654328,22.69035969
307,307,RT @gemhq: @BTCAgainstEbola uses #Bitcoin donations hub to reduce #remittance fees &amp; better fund the global fight against #Ebola http://t.c‚Ä¶,2014-09-26 22:49,-5.82030662,22.4252466
308,308,RT @YaThinkN: Thank you @antloewenstein about bloody time #Ebola profiteering at expense of qualified NGO was pointed out :( http://t.co/gp‚Ä¶,2014-09-28 23:04,0.219810105,21.73997302
309,309,RT @CDCgov: Unsafe burial practices are a major cause of new #Ebola cases in Sierra Leone. This week\'s #EbolaBigIdea is SAFE BURIALS SAVE L‚Ä¶,2014-09-17 9:13,-2.062689195,22.15803583
310,310,"RT @duracelqc: PBO get elected, spike in gun sales, why are\""Whites\""men afraid? Healthcare heroes treating #Ebola patient, detained. Now #Fe‚Ä¶",2014-09-25 6:17,-3.991960322,22.43368567
311,311,"RT @DrFriedenCDC: Emerging disease threats, incl #Ebola, remind us of the impt of detecting, controlling &amp; reporting diseases early &amp; effic‚Ä¶",2014-08-15 9:24,-2.9066094,21.2689929
312,312,"RT @RT_com: #Ebola death toll surpasses 5,000 - WHO http://t.co/vdsIIjJoQE http://t.co/NvufkGGuCm",2014-09-10 1:41,-3.565189848,24.17236429
313,313,RT @Dr_Ran: #Ebola #NPC1 RT @physorg_com: Researchers find \'key\' used by ebola virus to unlock cells and spread deadly infection http://t.c‚Ä¶,2014-09-15 22:30,-4.004538365,18.70787856
314,314,RT @JermaineWatkins: This: See... I knew #Ebola was a bigger worldwide threat than they admitted at jump. http://t.co/rtKgzXzwjk,2014-08-14 12:43,-4.892857142,21.01795508
315,315,@NicoleCOP thought you might be interested in new data on private giving to #Ebola v. private giving for other crises http://t.co/adwvaZWGXX,2014-09-22 19:51,-1.201826306,20.70645455
316,316,"RT @ONECampaign: NEWS: More than 14,000 #Ebola cases (including 4 now confirmed in Mali) &amp; more than 5,100 deaths http://t.co/WWxHYheIOS vi‚Ä¶",2014-08-10 14:35,-1.205206947,22.77197227
317,317,"@ReIntonation also, Facebook is asking me for donations for #Ebola while it is clearly a #falseflag. You think I\'m dum, @facebook?",2014-08-01 21:15,-5.013425673,23.48318506
318,318,"RT @DrFriedenCDC: Sen. Bill Frist, MD: ‚ÄúNo time for complacency‚Äù in must-read new op-ed on #Ebola response: http://t.co/mp6iNzT9LD @FoxNews",2014-08-24 17:42,-4.663145877,20.33306939
319,319,"RT @MelissaTweets: If #Ebola and #Gruber tweet on Twitter and media ignores it, do they exist?",2014-08-01 20:28,-3.690130653,24.11226196
320,320,#Ebola Ebola: for-profit disaster capitalists are already out looking to make money f  http://t.co/pJ6a8MhvlO http://t.co/tlKkcTHqN6,2014-09-15 12:32,-8.845062489,21.19069704
321,321,RT @Reslizumab: No evidence that the Ebola vaccine causes autism!üë™üë™üë™üë™#autism #aspergers #healthcare #CDCwhistleblower #Ebolaüë™üë™üë™üë™http://‚Ä¶,2014-09-27 7:44,-4.181975372,20.30311328
322,322,RT @CDCgov: Sierra Leone is fighting #Ebola and educating its residents one big idea at a time. This week\'s #EbolaBigIdea is SAFE BURIALS S‚Ä¶,2014-08-09 22:27,-6.132389901,21.86370357
323,323,RT @MoNscience Cld u walkthru #Ebola ward w/o catchng virus? video game could teach u how.http://t.co/uwluXlv8zr @nprGlobalHealth @shiftlabs,2014-09-18 7:52,-1.663205987,21.7774923
324,324,RT @MoNscience Cld u walkthru #Ebola ward w/o catchng virus? video game could teach u how.http://t.co/DJNV8crBKv @nprGlobalHealth @shiftlabs,2014-08-15 16:43,-2.250683091,19.87215856
325,325,A history of medical killers in #Africa #Ebola #HIV #poison #sterilisation http://t.co/5YMrdH0j86 cc @ducorwriter V/ @afriquiana86,2014-09-07 15:36,-5.023700344,23.97342868
326,326,"#ProTip Parents, believe your children when they talk about imaginary friends, they may be #ebola carriers. #OutbreakChat",2014-08-11 10:37,-2.488949535,21.15704064
327,327,"#Ebola Fears, Start Of #Flu Season Spur Jump In Sales For Clorox Disinfectant Wipes http://t.co/ZShy3KwXgE #data #cbssf #virus #health",2014-08-22 19:56,-3.959001024,18.93498761
328,328,RT @JermaineWatkins: This: See... I knew #Ebola was a bigger worldwide threat than they admitted at jump. http://t.co/rtKgzXzwjk,2014-08-01 4:26,-5.85586596,18.04705658
329,329,"RT @archietse: After weeks of fewer #Ebola cases in Liberia, @WHO says it appears ‚Äútrend is real‚Äù http://t.co/cHEArMXp33 http://t.co/RRjtnf‚Ä¶",2014-09-10 16:48,-7.620288455,22.25393835
330,330,"Fake \""pandemics\"" are another game of mind control!http://t.co/nN0IdWpmIn #news #fraud #lies #TGDN #pjnet #tcot #ccot #waar #ebola",2014-08-11 1:13,-6.589338768,18.25822905
331,331,I don\'t understand the fuss over the #CometLanding. Surely there are infinitely more important issues facing humanity. #Ebola #SyriaCrisis,2014-08-29 14:07,-6.422478767,26.48009634
332,332,@danieltosh until you cute #ebola I\'m only watching reruns. I\'m that cool.,2014-09-28 15:17,-0.809956783,18.34260984
333,333,Online Homeland security: #Senegal - #Ebola Virus Disease http://t.co/1awbnLEr2k,2014-09-13 19:04,-6.977587545,24.5177537
334,334,Watching @SouthPark #RandyIsLorde #alexfromtarget #rachelfromwalgreens #hashtag #Ebola,2014-08-19 6:07,-4.796909928,23.30011095
335,335,"RT @AllergyKidsDoc: Actual discussion:Parent \""I want #Ebola vaccine for my child\""Doc \""There isn\'t one, but we have #flushot\""Parent \""We d‚Ä¶",2014-09-29 16:43,-2.873968572,28.64440941
336,336,@AMREFCanada thanks for an amazing and stimulating evening.  Great discussion on #ebola in context.,2014-08-14 18:38,-3.149093622,22.67902527
337,337,"#Ebola Outbreak Deaths Pass 5,000TOTAL DEATHS = 5,160INFECTED = &gt; 14,000http://t.co/TDsJCuMtsG http://t.co/Z4hgwzgnBl",2014-08-25 18:44,-1.408622676,20.35074117
338,338,This: See... I knew #Ebola was a bigger worldwide threat than they admitted at jump. http://t.co/rtKgzXzwjk,2014-09-27 23:14,-4.580229031,20.17442987
339,339,Heat limits time doctors can spend in PPE to treat #ebola patients. @USAID @WhiteHouse challenge: design better suit http://t.co/9pkHzixmWB,2014-08-18 5:43,-2.632810833,22.07401997
340,340,RT @hp_ems: We\'re so bad at assessing real risk. #Ebola http://t.co/4x5zPkA8JK via @Cowan4President,2014-09-01 20:11,-4.891763697,21.88417739
341,341,RT @RT_com: #US nurses strike over insufficient #Ebola protections http://t.co/iCYbZDlQkv http://t.co/CYku6t0gVU,2014-08-17 5:50,-0.569750402,25.59913119
342,342,"Perspective: #Ebola is rampant in west Africa while American scientists are busy discovering the \""stupidity\"" virus: http://t.co/dGyGmB8fGI",2014-08-24 4:14,-7.348162349,22.09071277
343,343,RT @Oritavancin: No evidence the Ebola vaccine causes autism!#autism #aspergers #Psychiatry #healthcare #CDCwhistleblower #ebolahttp://‚Ä¶,2014-08-12 5:10,-1.868331249,22.59775901
344,344,"PBO get elected, spike in gun sales, why are\""Whites\""men afraid? Healthcare heroes treating #Ebola patient, detained. Now #Ferguson WTH, w/RW",2014-09-17 19:11,-0.529146728,21.48144826
345,345,"RT @KCBSNews: #Ebola fears, start of #flu season spur jump in sales for Clorox disinfectant wipes http://t.co/pFERvhzM1c",2014-08-26 18:22,-2.359558503,21.49532874
346,346,"RT @SavetheChildren: #Ebola Crisis at a \""Tipping Point:\"" 2.5 Million Children under 5 Live in Affected Areas http://t.co/6Rgwvi5OJw",2014-08-11 12:03,-6.691439044,22.55274524
347,347,"RT @AMREFCanada: @DavidFisman giving the #AmrefCoffehouse crowd an overview of Ebola -it\'s history, how it is spread #Ebola",2014-08-08 3:09,-2.027158089,22.09093001
348,348,Online Homeland security: #Senegal - #Ebola Virus Disease http://t.co/z3DP2aIsQF,2014-09-19 8:35,-7.40130047,22.12289614
349,349,RT @AskCheyB: VIDEO: #EbolaLoveStory Can #CraigSpencer #MorganDixon romance survive #Ebola? http://t.co/XgjA2A1opL  @ChasingNJ @FOX29philly‚Ä¶,2014-08-31 10:00,-5.423698354,23.36028768
350,350,RT @EI_EcoNewsfeed: .@EcoInternet Mali reports 2 new #Ebola deaths in capital: Canadian Press http://t.co/Zf5xs6ihnK *MORE @EI_Ebola http:/‚Ä¶,2014-09-08 19:09,-4.542497244,24.43854096
351,351,"RT @AllergyKidsDoc: Actual discussion:Parent \""I want #Ebola vaccine for my child\""Doc \""There isn\'t one, but we have #flushot\""Parent \""We d‚Ä¶",2014-08-16 10:21,0.190706607,22.56757236
352,352,"RT @africarenewal: #WestAfrica on brink of major food crisis in wake of #Ebola outbreak, warns UN special rapporteur http://t.co/5MN3mYeGmw‚Ä¶",2014-08-12 6:36,-3.781463407,21.46241431
353,353,I\'m not a nurse or MD but would want to help on the ground in west Africa in the #ebola fight. But how @msf ?,2014-08-28 12:45,-6.212862756,21.46064069
354,354,"Swimming, touching, and per diems - stories from the #Ebola response in West Africa. https://t.co/owxFcSe2FC on @aid_leap",2014-08-18 16:44,-4.60251453,23.99438361
355,355,#pray #hope #Ebola #victims #death #toll #outbreak #rises African - Hope - Devotion riddim [Tribute Song ] http://t.co/uRemrmxPc2,2014-08-16 3:26,-3.612990198,23.3995321
356,356,"UAB nixes university-funded trips Sierra Leone, Guinea, Liberia over #ebola concerns http://t.co/nDj0PwSbVX http://t.co/LWS2osweBt",2014-08-02 13:21,-2.588436466,21.43112923
357,357,RT @EI_EcoNewsfeed: .@EcoInternet Mali reports 2 new #Ebola deaths in capital: Canadian Press http://t.co/Zf5xs6ihnK *MORE @EI_Ebola http:/‚Ä¶,2014-09-16 18:49,-3.184225049,22.29254526
358,358,People talking about #EBOLA is getting annoying,2014-09-14 21:19,-1.921687655,21.52299684
359,359,RT @YaThinkN: Thank you @antloewenstein about bloody time #Ebola profiteering at expense of qualified NGO was pointed out :( http://t.co/gp‚Ä¶,2014-09-22 9:27,-2.081256044,21.54149565
360,360,This is #BS. Can the USA sue Duncan\'s estate for bring #Ebola here? How bout the 2 nurses who got sick. #FHim https://t.co/8iT2qE2IN3,2014-08-26 20:26,-4.650256088,22.14387708
361,361,"RT @WhySharksMatter: Interesting, some of the symptoms of #Ebola (bleeding from eyes, passing out, vomit) are also symptoms of watching thi‚Ä¶",2014-09-07 15:10,-3.390148552,21.99484906
362,362,"RT @WhySharksMatter: Interesting, some of the symptoms of #Ebola (bleeding from eyes, passing out, vomit) are also symptoms of watching thi‚Ä¶",2014-08-27 2:04,-1.696290244,21.06809984
363,363,RT @RT_com: #US nurses strike over insufficient #Ebola protections http://t.co/iCYbZDlQkv http://t.co/CYku6t0gVU,2014-09-27 2:49,-4.880066747,19.37942923
364,364,"RT @SavetheChildren: #Ebola Crisis at a \""Tipping Point:\"" 2.5 Million Children under 5 Live in Affected Areas http://t.co/6Rgwvi5OJw",2014-08-28 12:08,-9.393500352,24.25838126
365,365,"Interesting, some of the symptoms of #Ebola (bleeding from eyes, passing out, vomit) are also symptoms of watching this movie #OutbreakChat",2014-08-24 1:46,-4.185335353,24.40974266
366,366,RT @hniman: #Ebola nosocomial cluster in Pasteur Clinic in Bamako Mali grows to five #EbolaOutbreak CIDRAP http://t.co/3BtjBU0Cc9,2014-08-21 10:19,-5.205390576,22.07284883
367,367,RT @EI_EcoNewsfeed: .@EcoInternet Mali reports 2 new #Ebola deaths in capital: Canadian Press http://t.co/Zf5xs6ihnK *MORE @EI_Ebola http:/‚Ä¶,2014-08-29 20:04,-6.930051605,20.4807338
368,368,RT @RT_com: #US nurses strike over insufficient #Ebola protections http://t.co/iCYbZDlQkv http://t.co/CYku6t0gVU,2014-08-23 12:36,-6.342999772,19.30085801
369,369,RT @bill_easterly: Bono brings back ‚ÄòDo They Know It‚Äôs Christmas?‚Äô 4 #Ebola; it wasn\'t insulting enough the 1st time. http://t.co/xAEMEznZUK,2014-08-17 7:19,-3.073181958,20.74206045
370,370,"\""@RT_com: #US nurses strike over insufficient #Ebola protections http://t.co/fQlbLT0T6u http://t.co/G4XOzXZrpa\"",""\""@RT_com: #US nurses strike over insufficient #Ebola protections http://t.co/fQlbLT0T6u http://t.co/G4XOzXZrpa\"",""Twitter for Android",2014-09-14 7:42,-2.926792737,20.62751264
371,371,RT @UNFPA: .@UNFPA is recruiting skilled maternal health volunteers to serve in #Ebola affected countries. Interested? http://t.co/MT3mdRna‚Ä¶,2014-09-04 7:08,-6.984055026,22.81920752
372,372,RT @YaThinkN: Thank you @antloewenstein about bloody time #Ebola profiteering at expense of qualified NGO was pointed out :( http://t.co/gp‚Ä¶,2014-08-20 11:47,-1.553521357,22.95833268
373,373,@cnnbrk @CNN @FOXTV @msnbc did we fix #Ebola ? We\'ve been awfully quiet after the elections...hmm,2014-08-17 11:35,-2.105125699,21.41174951
374,374,#WeCanLandOnACometButWeCant cure #ebola,2014-08-07 16:02,-3.779984686,20.62624228
375,375,RT @jasonwheelertv: Looked thru #Ebola lawsuit. No damage amount was specified. And still no word on the amount of settlement between Dunca‚Ä¶,2014-09-04 16:00,-4.987306043,24.84054827
376,376,"Not ONE case of #Ebola in America presently.
Surprised? You've been watching TV 'news', then.
There's your problem.",2014-09-27 16:20,-5.228004256,23.39723931
377,377,RT @YaThinkN: Thank you @antloewenstein about bloody time #Ebola profiteering at expense of qualified NGO was pointed out :( http://t.co/gp‚Ä¶,2014-09-21 6:28,-0.421243059,19.48125464
378,378,Sobering re #HIV lessons from @H20Melb 14 die a day in Oct 2014 in west Africa from #ebola but 685 on same day from #HIV/AIDS,2014-09-27 3:35,-3.482342073,18.68934843
379,379,RT @RT_com: #US nurses strike over insufficient #Ebola protections http://t.co/iCYbZDlQkv http://t.co/CYku6t0gVU,2014-09-05 5:59,-3.897036993,26.68162471
380,380,"\""@RT_com: #US nurses strike over insufficient #Ebola protections http://t.co/RqQFhm3uRL http://t.co/9mDrtnOJFK\"",""\""@RT_com: #US nurses strike over insufficient #Ebola protections http://t.co/RqQFhm3uRL http://t.co/9mDrtnOJFK\"",""Twitter for Android",2014-08-07 6:13,-5.59696158,22.93683622
381,381,"Next week should be a lot of fun‚Ä¶ #amnesty, #Fergsuon, #ebola, #Benghazi , #irs, #holder",2014-09-06 12:25,-3.584865447,23.05137756
382,382,RT @mercycorps: Skyrocketing food costs &amp; a decrease in income are part of the economic toll caused by #Ebola. Read more: http://t.co/Zv14Q‚Ä¶,2014-08-01 4:38,-5.004380912,22.70682672
383,383,RT @YaThinkN: Thank you @antloewenstein about bloody time #Ebola profiteering at expense of qualified NGO was pointed out :( http://t.co/gp‚Ä¶,2014-08-25 18:54,-6.278765034,21.48409918
384,384,"RT @BPForumMag: \""The virus is more nimble than the human response to it.\"" Govts &amp;orgs strive to be as agile as #Ebola http://t.co/FN59LYlKch",2014-09-20 5:15,-2.941424307,20.7877906
385,385,"#Ebola Death Toll More Than 2,900 ‚ÄîWHO... http://t.co/vipFPVodvG #ebolatreatment #ebolavictims",2014-08-28 2:59,-5.036493046,19.24840062
386,386,"#Ebola Could Strike 20,000 In... http://t.co/QR4WRlWHIk #StudyonEbola",2014-08-24 14:48,-5.955174125,25.99257324
387,387,#Ebola #Imam : 28 health care workers had contact with the deceased patient at the Clinic in #Bamako are being placed under observation.,2014-09-17 5:52,-11.72767845,23.47113223
388,388,Online Homeland security: #Nigeria - #Ebola Virus Disease http://t.co/20uQSIhYkh,2014-09-16 17:32,-3.224206692,20.91005546
389,389,RT @hp_ems: We\'re so bad at assessing real risk. #Ebola http://t.co/4x5zPkA8JK via @Cowan4President,2014-08-07 2:02,-0.496303079,20.74919388
390,390,#ebola Ebola: for-profit disaster capitalists are already out looking to make money from misery | Antony Loewenstein http://t.co/x14hDFjfAd,2014-09-06 4:49,-4.85452349,20.2543818
391,391,RT @RT_com: #US nurses strike over insufficient #Ebola protections http://t.co/iCYbZDlQkv http://t.co/CYku6t0gVU,2014-09-24 8:51,-4.295299541,22.06716684
392,392,RT @RT_com: #US nurses strike over insufficient #Ebola protections http://t.co/iCYbZDlQkv http://t.co/CYku6t0gVU,2014-08-28 2:40,-4.519560813,20.54792635
393,393,Thank you @antloewenstein about bloody time #Ebola profiteering at expense of qualified NGO was pointed out :( http://t.co/gpuCjNJZyL,2014-09-06 23:17,-7.138390931,19.31186884
394,394,RT @AJConsiderThis: Was the panic over #Ebola more virulent than the disease? http://t.co/LINv5xsMsm @VUMChealth\'s Dr. William Schaffner jo‚Ä¶,2014-08-28 16:55,-4.400787993,25.97556977
395,395,Online Homeland security: #Nigeria - #Ebola Virus Disease http://t.co/zGOQlcgOcr,2014-09-01 10:03,-3.498796381,19.48650712
396,396,#EBOLA has been trending 30min on the OUTBREAK page http://t.co/3P1gzZ03k7 #Tweetzup,2014-08-21 5:31,-4.743848301,23.52028398
397,397,"RT @MelissaTweets: If #Ebola and #Gruber tweet on Twitter and media ignores it, do they exist?",2014-09-09 12:11,-3.228890279,23.43865026
398,398,RT @WSJ: Behind the scenes at Bellevue‚Äôs #Ebola treatment ward: http://t.co/4Ee7DpsR3B http://t.co/CW8eIXjRfu,2014-09-10 16:38,-11.4257906,22.04115936
399,399,RT @SusanWojcicki: Google matches $2 for every $1 donated in the fight against Ebola. Join the fight! #Ebola http://t.co/B8DLzqFLv4),2014-08-19 10:37,-6.120732843,21.83879584
400,400,#Ebola Victim\'s Family Agree Deal With Hospital http://t.co/jKAOlgPsh4,2014-09-29 3:03,-2.797671198,19.00829242
401,401,#Ebola outbreak deaths pass 5000 - BBC News http://t.co/AdrXxBwatt,2014-08-02 6:42,-6.127273513,23.78063526
402,402,#EBOLA: #Minister Claims #U.S. #Scientists Created #Race-Based #Bioweapons: http://t.co/8OZAJv1Qo5 via @YouTube #populationcontrol #class,2014-08-08 22:14,-6.435501995,19.79388218
403,403,RT @theOFDA: 30 metric tons of personal protective equip arrives in #Liberia to protect healthcare workers on frontlines of #Ebola http://t‚Ä¶,2014-08-10 16:59,-2.475819247,24.83377838
404,404,"RT @MelissaTweets: If #Ebola and #Gruber tweet on Twitter and media ignores it, do they exist?",2014-08-18 5:36,-8.198415821,21.09717462
405,405,#Ebola In 3-D: A Video Game To Guide Health Care Workers Through A Ward http://t.co/ogKwVpZErQ,2014-08-07 0:44,-1.455808992,21.64282784
406,406,RT @RT_com: #US nurses strike over insufficient #Ebola protections http://t.co/iCYbZDlQkv http://t.co/CYku6t0gVU,2014-08-06 0:34,-3.299376719,21.47303914
407,407,"RT @TheTakeaway: There are a number of conspiracy theories in W. Africa about #Ebola,  says @hirondelleus. Fear is hard to fight. http://t.‚Ä¶",2014-08-23 16:09,-1.694863268,23.44821391
408,408,RT @Reslizumab: No evidence that the Ebola vaccine causes autism!üë™üë™üë™üë™#autism #aspergers #healthcare #CDCwhistleblower #Ebolaüë™üë™üë™üë™http://‚Ä¶,2014-08-02 3:31,-3.779524492,22.31692495
409,409,Eco: Mali confirms its second and third #Ebola deaths: Washington Post: Two more people -- a patient from Guin... http://t.co/3ghvwcCDJN,2014-08-13 3:54,-3.101720672,24.12778575
410,410,"If #Ebola and #Gruber tweet on Twitter and media ignores it, do they exist?",2014-08-26 12:55,-3.086994786,21.2901514
411,411,"#Ebola: The need to act, rather than respond http://t.co/yxP5sN9YwW @kevinmd #health #healthcare #medicine",2014-09-11 16:29,-2.243555846,23.45885367
412,412,"\""#Ebola: for-profit #disastercapitalists are already out looking to make money from misery\"" #predatorycapitalismhttp://t.co/U30KOEkQGv",2014-09-13 8:32,-4.86646208,24.90241206
413,413,#Ebola Vaccine Trials to Start in West Africa http://t.co/M0bZTPY4RJ,2014-09-11 18:37,-4.082155535,24.49841989
414,414,RT @GOPTeens: #Teens: Elect a #Republican Senate -- less #American cases of #Ebola.#Coincidence?,2014-08-15 10:31,-5.633120363,24.31543894
415,415,"#Ebola #Imam in #Bamako infected not only a nurse, but also a Doctor. His son, his brother&amp; 2th wife. His 1th wife, daughter and friend died",2014-08-17 13:07,-3.720665716,20.56390916
416,416,"RT @AfricaACSS: As #Mali faces a new #Ebola outbreak, Nigeria and Uganda offer important lessons in stopping it early: http://t.co/Kiqq44de‚Ä¶",2014-09-05 3:07,-6.626620379,24.31889667
417,417,Congressman #Duffy talks about #Ebola research funding - Nov 12 @ 9:31 PM ET http://t.co/ZahgziUwFb,2014-09-09 0:24,0.102169941,23.43061376
418,418,@juliarose67890 @cass_rogerss no school for you too #ebola,2014-09-08 10:00,-4.717807275,23.83031154
419,419,"Nurses March, Demand Better #Ebola Protection http://t.co/78YDSKlEQx",2014-09-20 22:22,-3.259192175,23.79785073
420,420,"RT @KNX1070: #Ebola Fears, Start Of Flu Season Spur Jump In Sales For #Clorox Disinfectant Wipes http://t.co/iwWZe8ERWd",2014-09-19 22:42,-4.756877783,20.80091045
421,421,"News: This is the largest #Ebola outbreak ever recorded, with more than 14,000 people... http://t.co/AaakE3rOru",2014-08-11 0:06,-3.703323092,18.66232926
422,422,Skyrocketing food costs &amp; a decrease in income are part of the economic toll caused by #Ebola. Read more: http://t.co/Zv14QrHhS2,2014-08-11 13:55,-3.479018781,23.51800546
423,423,RT @genophilia: RT if you are sick of Obama exposing our children to foreign diseases. #EVD68 #Ebola #EbolaOutbreak #uniteblue http://t.co/‚Ä¶,2014-09-15 13:03,-5.376909329,24.18953079
424,424,RT @Reslizumab: No evidence that the Ebola vaccine causes autism!üë™üë™üë™üë™#autism #aspergers #healthcare #CDCwhistleblower #Ebolaüë™üë™üë™üë™http://‚Ä¶,2014-08-16 17:57,-2.089770375,22.12395951
425,425,"Ugh. \""@kasujja: Africa, the land of simba, Cleopatra...oh and #Ebola! According to @TMZ. Really? http://t.co/yHUsZrl0oO\"",""Ugh. \""@kasujja: Africa, the land of simba, Cleopatra...oh and #Ebola! According to @TMZ. Really? http://t.co/yHUsZrl0oO\"",""Twitter for Android",2014-09-16 19:56,-4.500964015,19.77400192
426,426,#population Mali confirms its second and third #Ebola deaths: Washington Post http://t.co/MUiQtE8tA3 *spreading http://t.co/L3Nc07zU7X,2014-08-26 18:54,-5.600966958,21.50981415
427,427,#population Mali reports 2 new #Ebola deaths in capital: Canadian Press http://t.co/a0G05VIaLY *MORE @EI_Ebola http://t.co/f1kIJJcM8Y,2014-08-22 17:23,-0.560203489,23.08014063
428,428,RT @buissonnierem: ‚Äú@MSF: Any questions about #Ebola? Sign up for #MSF\'s new e-learning platform about the virus http://t.co/WD2kxGESBA htt‚Ä¶,2014-08-19 1:51,-5.156087845,20.74363424
429,429,"RT @mwhaites: Pres of Nigerian nurses union says #Ebola is a global crises. We need equipment, funding and coordination. #G20 @PSIglobaluni‚Ä¶",2014-09-01 9:40,-5.022382822,22.07812893
430,430,‚Äú@MSF: Any questions about #Ebola? Sign up for #MSF\'s new e-learning platform about the virus http://t.co/WD2kxGESBA http://t.co/l5mKrPxikF‚Äù,2014-09-24 16:19,-8.504512476,23.23727856
431,431,"RT @kim_tastiic: \""WHO staff are paid $200-300 per hour. We are doing the dirty work and get paid $300 monthly.\""- disgruntled Liberian healt‚Ä¶",2014-09-03 1:25,-4.514549499,19.97639447
432,432,Zero #Ebola cases. We no longer need a Czar and certainly not a Surgeon General. #TheInmatesareRunningtheAsylum,2014-09-08 18:13,-3.817173582,19.84110196
433,433,RT @UpfrontAfrica: U.S. is scaling back on number of soldiers being sent to #Ebola-stricken Liberia http://t.co/xmORFnNQqc http://t.co/u9dG‚Ä¶,2014-08-16 18:17,-8.930652308,22.97345375
434,434,RT @newswatchcanada: #Bamako: #Mali quarantines dozens as second #Ebola outbreak spreads in countryhttp://t.co/1W7vvKw9w9,2014-08-12 20:11,-6.174992429,23.60088053
435,435,VIDEO: #EbolaLoveStory Can #CraigSpencer #MorganDixon romance survive #Ebola? http://t.co/fUwzpRIXRZ... http://t.co/tpQsWMi3aL,2014-09-28 17:55,-6.081892925,22.59565903
436,436,RT @UCIEngineering: @UCIrvine is waging an #Ebola battle that might lead to cure. @michelledigman #biomedicalengineering #Ebolacure #zotht‚Ä¶,2014-09-18 18:22,0.33586819,20.11611599
437,437,RT @ONEcampaignUK: SHOCKING: One in 7 women risk dying in #childbirth in #Ebola-hit countries  http://t.co/psMrOjUD4O via @Reuters http://t‚Ä¶,2014-08-26 22:52,-2.793778641,23.79386351
438,438,RT @Barbi_Twins: Hendry Co defends #monkey breeding lab negligence including #Ebola-Typical&gt;govt protects biz over bodies @JVM @ALDF http:/‚Ä¶,2014-09-08 11:33,-4.194401581,21.31399234
439,439,#Ebola In 3-D: A Video Game To Guide Health Care Workers Through A Ward http://t.co/20gASLOEfF Via @nprnews:,2014-08-17 18:02,-4.128791496,22.49240684
440,440,"RT @FollowEbola: US nurses hold strikes, protests over #Ebola measures. http://t.co/bIlGv6zSbH",2014-08-08 8:16,-3.897696689,22.30501285
441,441,"RT @UNICEF: How #Ebola survivors like Patience, 19, are playing a key role in the response http://t.co/VMwaIpapbx via @irinnews",2014-08-05 11:09,-1.941347706,21.88735276
442,442,"RT @ONECampaign: NEWS: More than 14,000 #Ebola cases (including 4 now confirmed in Mali) &amp; more than 5,100 deaths http://t.co/WWxHYheIOS vi‚Ä¶",2014-08-05 14:14,-0.932652245,22.14613276
443,443,RT @RT_com: #US nurses strike over insufficient #Ebola protections http://t.co/iCYbZDlQkv http://t.co/CYku6t0gVU,2014-09-19 11:54,-5.364125484,20.46541608
444,444,"RT @SuburbanFiveOh: Real #EMT call: \""man feels sick. Says his girlfriend is from W. Africa. She hasn\'t been there in 3 years, but he\'s worr‚Ä¶",2014-08-21 15:44,-4.643136053,18.94330754
445,445,RT @EI_Forest: #forest Mali confirms its second and third #Ebola deaths: Washington Post http://t.co/YmqncuIRpx *spreading http://t.co/4ZX0‚Ä¶,2014-08-26 7:35,-6.05565918,23.49515181
446,446,@JEZUSCEAZAR even if its not possessed the shit still dirty bitch #WhatTheDoll #Annabelle #Ebola,2014-08-23 9:43,-3.868240129,19.19460191
447,447,RT @AsCorrespondent: UN\'s Ban Ki-moon calls on Asia to step up #Ebola fight  http://t.co/yH3UkYPXfX  #Asia http://t.co/uv1hXYFXtM,2014-08-07 1:06,-2.23557135,22.17341771
448,448,#WHO staff assume that many mourners attended the ceremonies. In #Bamako and the mosque in #Guinee. #Ebola #Imam,2014-08-30 18:02,-5.232674495,22.48227776
449,449,RT @intldogooder: Not to miss! @FaraiToday\'s 3-part series @Forbes on #Africans\' work to curb spread of #Ebola http://t.co/18sFZsP6J5 &amp; htt‚Ä¶,2014-09-24 7:57,-3.932729116,19.96804255
450,450,#sustainable Mali confirms its second and third #Ebola deaths: Washington Post http://t.co/GIVMjuLGUf *spreading http://t.co/Vh9lkVhwX2,2014-08-02 17:41,-3.275854282,21.6084393
451,451,#forest Mali confirms its second and third #Ebola deaths: Washington Post http://t.co/YmqncuIRpx *spreading http://t.co/4ZX00sZpoq,2014-08-18 11:08,-4.519537539,19.63933782
452,452,#sustainable Mali reports 2 new #Ebola deaths in capital: Canadian Press http://t.co/X5qrfndMue *MORE @EI_Ebola http://t.co/lqIKVEjY6P,2014-09-24 17:37,-3.913665751,20.9839345
453,453,#forest Mali reports 2 new #Ebola deaths in capital: Canadian Press http://t.co/oxxfMXVTnB *MORE @EI_Ebola http://t.co/i3fRgEyrhh,2014-08-24 17:07,-2.853725465,20.17776826
454,454,US urges #IMF to give debt relief to #Ebola stricken countries. #Liberia #SierraLeone #Guinea #development http://t.co/GHD1oU37Td,2014-09-12 13:40,-5.760061641,23.89921453
455,455,"#Mali Is Worried About #Ebola, #Quarantines Nearly 100 http://t.co/Gxumwu86xy Via @nprnews",2014-09-05 9:06,-6.353936688,20.7744734
456,456,If #Ebola enters #india it\'s over fr the country http://t.co/n5eCk9bByD‚Äù #fb @narendramodi,2014-09-05 6:18,-1.315059161,23.45728749
457,457,RT @Reslizumab: No evidence that the Ebola vaccine causes autism!üë™üë™üë™üë™#autism #aspergers #healthcare #CDCwhistleblower #Ebolaüë™üë™üë™üë™http://‚Ä¶,2014-08-03 21:28,-5.49354466,22.52031662
458,458,RT @FAOnews: #Nowreading: West Africa ‚Äòon brink‚Äô of major food crisis in wake of #Ebola outbreak ‚Äì @UN expert http://t.co/X5LmrXPrub via @U‚Ä¶,2014-09-01 22:08,-4.177256952,23.71013718
459,459,RT @Ebolatrends: Family of #Ebola Victim #ThomasEricDuncan Settles With #DallasHospital - #NBCNews... http://t.co/DmD767NfLQ http://t.co/B2‚Ä¶,2014-09-15 5:56,-0.161741335,22.89892806
460,460,RT @energyaccessPN: Hear @SE4ALL CEO @KYumkella on imp of #energy #Ebola: http://t.co/CSX40YALwN Donate to @unfoundation Ebola Fund http:/‚Ä¶,2014-09-10 3:12,-5.777388985,23.36429763
461,461,RT @UpfrontAfrica: U.S. is scaling back on number of soldiers being sent to #Ebola-stricken Liberia http://t.co/xmORFnNQqc http://t.co/u9dG‚Ä¶,2014-08-03 3:25,-4.309101032,25.44261222
462,462,Ethical Issues: Medical Experts Look For New Ways To Test #Ebola Drugs http://t.co/VtylobE9Be Via @nprnews,2014-09-27 11:53,-2.543923257,21.08004454
463,463,"shares that supportive care really isn\'t treatment for #Ebola so our success rate of 100% (#KentBrantly,... http://t.co/5envJehOL1",2014-08-19 16:21,-2.280986527,18.30849042
464,464,RT @AashishChaudh20: Checkout our latest blog and demo on #ebola http://t.co/0ib3J5NZdq,2014-08-05 3:19,-6.182088505,20.82710452
465,465,"RT @ONECampaign: NEWS: More than 14,000 #Ebola cases (including 4 now confirmed in Mali) &amp; more than 5,100 deaths http://t.co/WWxHYheIOS vi‚Ä¶",2014-09-16 19:58,-2.905130877,20.69960345
466,466,RT @SSIReview: The $338 Million #Ebola Giving Gap #philanthropy @DalbergTweet @VickyHausman  http://t.co/UTqvO76ejb,2014-09-14 7:08,-2.883074309,23.23326556
467,467,"RT @MSF: MSF is offering doctors, nurses, health educators and psychologists involved in the #Ebola fight an interactive tool http://t.co/v‚Ä¶",2014-09-11 8:21,-2.266810618,25.01178815
468,468,RT @CAMAServices: Criticizing others who take risks to serve is the exact opposite reaction we should have. http://t.co/Av4puWAH6m via @REL‚Ä¶,2014-09-25 13:33,-9.828830764,22.36215775
469,469,RT @YannMSF: #Ebola: #MSF Online Briefing Now Available to the Public  http://t.co/WqSnY8W8hL http://t.co/Qo9BVL3FrC,2014-09-08 19:19,-2.89386704,24.5886635
470,470,"#Ebola #outbreak #deaths #pass #5000: The number of people killed by the worst outbreak of Ebola has risen to 5,160‚Ä¶ http://t.co/SY6ti5iPPM",2014-08-26 7:36,-2.014600376,21.87592794
471,471,"Single-dose, needle-free #Ebola #vaccine provides long-term protection in macaques  http://t.co/HXbxeDTLYM",2014-08-14 11:20,-3.437631115,21.47417562
472,472,#Ebola #outbreak #deaths #pass #5000: The number of people killed by the worst outbreak of‚Ä¶ http://t.co/NqjvlwedkK,2014-09-03 8:32,-5.047308886,23.34782502
473,473,RT @AlertNet: @Oxfam says half of G20 countries have failed to deliver in fight against #Ebola - latest from @mishahussain http://t.co/u5IN‚Ä¶,2014-08-01 11:48,-3.833727441,19.41917919
474,474,As #Ebola takes lives in #Liberia it leaves hunger in its wake http://t.co/I9XMpcmrRc,2014-08-16 7:50,-2.197038831,23.08934224
475,475,#rainforest Mali confirms its second and third #Ebola deaths: Washington Post http://t.co/qKhvjhqqhh *spreading http://t.co/rOvqG0tLjk,2014-08-03 19:31,-1.691346705,23.01342849
476,476,#rainforest Mali reports 2 new #Ebola deaths in capital: Canadian Press http://t.co/KQLC8d9MlX *MORE @EI_Ebola http://t.co/Arbs4RHAus,2014-08-28 2:17,-6.199320722,23.24191326
477,477,@YoursTrulyNisa Riiiiiiiiiiiiiiiiiiiiiiiiight #ebola,2014-08-17 16:49,-6.131711203,26.98818328
478,478,Settlement Quickly Reached in Ebola Death Case - http://t.co/6peMykKiuY #ebola,2014-08-30 17:48,-3.580626105,17.86918505
479,479,"West Africa now on the brink of a food crisis, UN reports. #Ebola http://t.co/bLCTMxV51i",2014-08-06 21:19,-8.622962168,21.37221344
480,480,Health and Human Services: We Have the Right Strategy in Place - http://t.co/zAZZhPqZ1W #ebola,2014-09-06 15:37,-2.832614519,23.87290439
481,481,RT @hniman: #Ebola nosocomial cluster in Pasteur Clinic in Bamako Mali grows to five #EbolaOutbreak CIDRAP http://t.co/3BtjBU0Cc9,2014-09-10 12:38,0.846883049,23.14111333
482,482,Foundout.. Gumi sceptical about Jonathan\'s declaration: A patient that recovers from Ebola ... http://t.co/xveOQE053y ..#Ebola..#Nigeria,2014-09-18 8:09,-2.279851477,23.51075597
483,483,#Ebola nasal#vaccine under threat as funding runs dry http://t.co/MZ09zVb7qI via @InPharmaTechno,2014-08-29 2:09,-0.821059565,22.25658508
484,484,"#Liberia\'s #Ebola Corpse Squads http://t.co/7ncXPcLOFR http://t.co/8ngMzeITNJ\"",""#Liberia\'s #Ebola Corpse Squads http://t.co/7ncXPcLOFR http://t.co/8ngMzeITNJ\"",""Twitter for Android",2014-09-15 0:08,-3.539202612,23.37132747
485,485,"RT @RT_com: #Ebola death toll surpasses 5,000 - WHO http://t.co/vdsIIjJoQE http://t.co/NvufkGGuCm",2014-09-19 23:12,-2.736010644,21.62135935
486,486,"RT @kasujja: Africa, the land of simba, Cleopatra...oh and #Ebola! According to @TMZ.  Really? Humour? Ignorance? Indifference? http://t.co‚Ä¶",2014-08-29 17:29,-0.525433323,24.13822635
487,487,RT @newswatchcanada: #Bamako: #Mali quarantines dozens as second #Ebola outbreak spreads in countryhttp://t.co/1W7vvKw9w9,2014-09-05 11:27,-3.289072075,21.56615113
488,488,#Ebola nosocomial cluster in Pasteur Clinic in Bamako Mali grows to five #EbolaOutbreak CIDRAP http://t.co/3BtjBU0Cc9,2014-08-31 19:15,-4.235600992,25.15794163
489,489,RT @WSJ: Behind the scenes at Bellevue‚Äôs #Ebola treatment ward: http://t.co/4Ee7DpsR3B http://t.co/CW8eIXjRfu,2014-08-01 18:21,-3.876083651,21.97649315
490,490,RT @theOFDA: 30 metric tons of personal protective equip arrives in #Liberia to protect healthcare workers on frontlines of #Ebola http://t‚Ä¶,2014-09-24 17:14,-5.379585862,19.83537021
491,491,Now that ppl n #America getn #Ebola had a cure all this time.Ppl have been dying n #Africa Now you want a donationüòí http://t.co/aP995SxHbK,2014-08-12 23:29,-1.252811689,23.27655575
492,492,#Ebola Mali confirms its second and third #Ebola deaths: Washington Post http://t.co/TjZEg7sw2X *spreading http://t.co/LSRybxxr1d,2014-08-31 22:48,-5.195121895,18.29133565
493,493,"Africa, the land of simba, Cleopatra...oh and #Ebola! According to @TMZ.  Really? Humour? Ignorance? Indifference? http://t.co/vOc1asFXrc",2014-08-16 22:34,-1.272442784,23.94548704
494,494,"RT @TheTakeaway: There are a number of conspiracy theories in W. Africa about #Ebola,  says @hirondelleus. And fear is hard to fight. http:‚Ä¶",2014-09-01 16:06,-1.407125987,21.97163313
495,495,"#Ebola survivor, Dr. Craig Spencer: ‚ÄòPlease join me in turning our attention back to West Africa‚Äô... http://t.co/r0roBgWBbr",2014-09-02 19:55,-7.939358893,25.30060679
496,496,Background about the new #Ebola case in #Mali: the transmission chain starts in #Guinea on 17th of oct. http://t.co/Ezwxbuzypl,2014-09-29 5:24,-1.900151115,27.21951767
497,497,RT @DFID_UK: .@BillGates meets the DFID #Ebola team today ahead of his @UKHouseofLords speech and Q&amp;A this evening. http://t.co/hwKR63ufpF,2014-09-17 5:38,-2.984727748,21.01624918
498,498,"RT @katarinah: Swedish troops just arrived in #Timbuktu, more expected next week. Let\'s hope #MINUSMA has #Ebola action plan for staff outs‚Ä¶",2014-08-08 21:23,-3.641635257,22.25464871
499,499,@jimmymackin at least it is not #ebola.. I hope #WaterCooler,2014-09-15 0:33,-5.532532712,22.3713167
500,500,RT @AJConsiderThis: Was the panic over #Ebola more virulent than the disease? http://t.co/LINv5xsMsm @VUMChealth\'s Dr. William Schaffner jo‚Ä¶,2014-08-03 16:11,-5.635283866,16.94102315
501,501,Facebook to encourage users to donate to Ebola fight   http://t.co/1Jb8umF0i4  #ebola #facebook #theredcross,2014-08-05 5:07,-3.888381138,22.66764642
502,502,RT @BK00023: @morrislaw he is with the #Ebola Czar,2014-08-09 21:01,-1.3564577,23.41928216
503,503,Mali confirms its second and third #Ebola deaths http://t.co/m0BjIUpNOI http://t.co/EcOlg6uL4e,2014-09-19 14:44,-2.623720394,19.76768573
504,504,"@abronxchick @DaleMoss2 not only should they have sent him home, they Should of sent his #ebola ass ass back HOME TO AFRICA! FOH",2014-08-14 1:37,-6.098034367,22.78189499
505,505,#Ebola Mali reports 2 new #Ebola deaths in capital: Canadian Press http://t.co/644IYqazNJ *MORE @EI_Ebola http://t.co/1PxKZpcWYg,2014-08-24 22:57,-1.180278122,21.17027086
506,506,RT @AlaOG: Listen to Anne Bennett @HirondelleUSA on fear and mistrust during the ebola epidemic in Africa http://t.co/uxNwMds5m3 @hirondell‚Ä¶,2014-09-25 1:37,-5.954424324,23.42212146
507,507,Kinda hope the #EbolaCrisis wipes out humanity #Ebola,2014-08-27 4:47,-4.020879414,17.08861554
508,508,RT @qldnursesunion: Earlier today Australian nurses spoke with Liberian Ebola workers on the frontline. #g20 #ebola #oznurses #qldpol http:‚Ä¶,2014-08-19 18:15,-6.809773944,21.46500235
509,509,"\""@WorkoutHumor: This deserves endless RT‚Äôs http://t.co/TWgD6jOyK8\"" #Ebola",2014-09-08 5:51,-4.912093361,21.75061702
510,510,"RT @TheTakeaway: There are a number of conspiracy theories in W. Africa about #Ebola,  says @hirondelleus. Fear is hard to fight. http://t.‚Ä¶",2014-08-01 23:58,-2.209124719,22.15750539
511,511,Was the panic over #Ebola more virulent than the disease? http://t.co/LINv5xsMsm @VUMChealth\'s Dr. William Schaffner joins @AMoraTV tonight,2014-09-18 2:46,-4.455508213,20.43266567
512,512,#Ebola US veterinary group issues guidelines for handling Ebola exposure in pets - Xinhua http://t.co/C7FRdMWWyB,2014-09-12 8:22,-6.549040766,18.85024197
513,513,"More than 5,000 #Ebola deaths, says WHO http://t.co/TzBOekydeK via @YahooNews #SierraLeon #Liberia #CDC #WestAfrica #ThomasEricDuncan",2014-09-13 4:18,-1.980193921,21.3735561
514,514,RT @SusanWojcicki: Google matches $2 for every $1 donated in the fight against Ebola. Join the fight! #Ebola http://t.co/B8DLzqFLv4),2014-08-22 23:06,-4.239710651,22.40960561
515,515,@RocketsManJoel @Rags2Rockets cuz I get stupid i mean outrageous stay away if ur contagious! #Ebola,2014-08-26 2:50,-2.531312532,20.17890071
516,516,@abronxchick @DaleMoss2 wait what!!!! The hospital should be suing THEM!!!! He shouldn\'t have brought his #ebola ass to America,2014-08-20 19:00,-3.243901743,23.41587048
517,517,"Sierra Leone Ship docks in #florida Cape Canaveral some sightseeing in and fun, would you like to meet them too? #ksc #Ebola #SierraLeone",2014-08-28 0:34,-4.537049876,21.16938784
518,518,RT @Int_Travelers: RT @JubileeUSA: Huge News: US asks #IMF to cancel debt for countries dealing with #Ebola. http://t.co/nYnCsVc1m1 @Eric_L‚Ä¶,2014-09-25 8:20,-5.383776816,20.45910755
519,519,RT @Peepsqueak: US nurses strike over insufficient #Ebola protections | rt #news http://t.co/CmFXQc9n7C,2014-08-15 19:51,-5.940127183,20.38763534
520,520,"RT @Laurie_Garrett: Today @UNDP took over payroll at #Liberia MinHlth. Some got paid for 1st time in 3 mos, but I know 2 #Ebola staff got 1‚Ä¶",2014-08-18 8:51,-8.223083306,22.52207787
521,521,Ebola fight to be a top topic for Congress http://t.co/285XhUGHLJ #ebola,2014-08-07 9:56,-4.667230966,21.31955509
522,522,Mali races to head off Ebola outbreak after second death http://t.co/Q74XtkNGkO #ebola,2014-08-15 0:26,-3.599645696,19.30530145
523,523,Band Aid song Do They Know Its Christmas? re-recorded for Ebola cause http://t.co/bITeGx1bvw #ebola,2014-09-05 17:12,-3.299872909,19.86321799
524,524,RT @SusanWojcicki: Google matches $2 for every $1 donated in the fight against Ebola. Join the fight! #Ebola http://t.co/B8DLzqFLv4),2014-08-28 23:52,-1.799962108,19.62426037
525,525,RT @SandroDemaio: Our PM talks about #Ebola &amp; building the economy - missing the biggest issues of #NCDs &amp; economic inequality! #H20MELB #a‚Ä¶,2014-09-05 8:16,-5.237149541,18.8351461
526,526,RT @EbolaOutbreakUS: #Ebola is in #Florida  RT PLEASE THANKS! #florida is monitoring 9 people for #ebola in #florida! http://t.co/HmI3GzKD5q,2014-09-04 15:27,-5.268668031,20.65234839
527,527,RT @SusanWojcicki: Google matches $2 for every $1 donated in the fight against Ebola. Join the fight! #Ebola http://t.co/B8DLzqFLv4),2014-09-21 2:55,-4.53967931,21.71382668
528,528,"RT @ftcomment: \""We need the WHO more than ever - starving it of funds is reckless\"" - Lawrence Summers (@LHSummers) http://t.co/n4QSTRFsQg #‚Ä¶",2014-08-22 13:00,-2.965167208,22.67754127
529,529,"RT fml_katie: RT SavetheChildren: #Ebola Crisis at a \""Tipping Point:\"" 2.5 Million Children under 5 Live in Affec... http://t.co/xEaEiM9Gvx",2014-09-27 1:57,-7.466982482,20.05739369
530,530,RT @SusanWojcicki: Google matches $2 for every $1 donated in the fight against Ebola. Join the fight! #Ebola http://t.co/B8DLzqFLv4),2014-09-13 15:23,-4.009354407,21.29468865
531,531,RT @YourAnonGlobal: #US nurses strike over insufficient #Ebola protections http://t.co/mYv6Aget3r http://t.co/GMGV5KtPVg,2014-08-16 7:45,-5.580983186,24.01205932
532,532,RT GODRUS: RT Potrblog: It appears #Obama flew an #IllegalImmigrant #African #Ebola Victim To #USA from #Maspalo... http://t.co/CtGUK6SlNr,2014-08-21 9:08,-2.145314521,20.21969857
533,533,#Disney #JustinBieber ROLL ONE TO THIS SONG!! VERY RARE VISUALZ OMG WOW #NewToronto https://t.co/pDX2AVK3wz #Frozen #Ebola,2014-08-26 16:44,-0.498510386,26.08000926
534,534,Most detailed report on new #Ebola cases in #Mali. Imam traveled a lot sick before he died and still traveled on dead http://t.co/Ezwxbuzypl,2014-08-20 20:34,-3.218307381,20.27509192
535,535,RT @eAsiaMediaHub: @StateDeptSpox Psaki: We welcome #Japan‚Äôs ... additional $100 million contribution to the response to the #Ebola crisis ‚Ä¶,2014-08-04 20:35,-5.742989484,20.54048574
536,536,"RT @Potrblog: Late Saturday night, #HealthDept notified media outlets that a person with \""some risk\"" for #Ebola is in #Charlottehttp://t.‚Ä¶",2014-08-11 5:45,-3.483171417,24.98539227
537,537,RT @Barbi_Twins: Hendry Co defends #monkey breeding lab negligence including #Ebola-Typical&gt;govt protects biz over bodies @JVM @ALDF http:/‚Ä¶,2014-09-07 16:16,-1.338408038,24.38882908
538,538,RT @UN: Stopping #Ebola as fast as possible is #1 priority - @UNMEER\'s @UNBanbury on #EbolaResponse http://t.co/oL7D5eySMw http://t.co/jSu0‚Ä¶,2014-08-16 17:23,-2.915257198,20.6636391
539,539,"RT @EminemsRevenge: @MotherJones #Ebola, #Darfut, #BringBackOurGirls?? GREAT hashtags for a RT?",2014-09-22 4:03,-0.616922337,22.34505295
540,540,"RT @neva9257: So actually, the government keeping serums under wraps is pretty similar to the current #Ebola outbreak.",2014-09-12 3:54,-3.225403898,22.07545486
541,541,"RT @RT_com: #Ebola death toll surpasses 5,000 - WHO http://t.co/vdsIIjJoQE http://t.co/NvufkGGuCm",2014-09-05 7:51,-6.251595578,20.63499507
542,542,"RT @SavetheChildren: #Ebola Crisis at a \""Tipping Point:\"" 2.5 Million Children under 5 Live in Affected Areas http://t.co/6Rgwvi5OJw",2014-08-17 11:26,-6.916696771,24.58133989
543,543,RT @Potrblog: It appears #Obama flew an #IllegalImmigrant #African #Ebola Victim To #USA from #Maspalomashttps://t.co/wemnyMeEG6 http://t‚Ä¶,2014-08-11 6:48,-4.372753611,23.02685072
544,544,RT @ChannelNewsAsia: New Zealand police rule out presence of #Ebola in one of three vials found in mailboxes http://t.co/vV7uxDOlBz http://‚Ä¶,2014-09-22 11:10,-3.263726424,23.26746809
545,545,"RT @Laurie_Garrett: Today @UNDP took over payroll at #Liberia MinHlth. Some got paid for 1st time in 3 mos, but I know 2 #Ebola staff got 1‚Ä¶",2014-08-02 7:49,-3.204347234,21.81647572
546,546,#ecology Mali reports 2 new #Ebola deaths in capital: Canadian Press http://t.co/oqUmUiMb6l *MORE @EI_Ebola http://t.co/e8vTvwDFJD,2014-09-06 5:42,-3.521905622,22.84441246
547,547,RT @wessmith123: The U.S. is now #Ebola Free! Fox must be FREAKING OUT! #UniteBlue #TNTweeters #LibCrib http://t.co/GmjcPnGgid http://t.co/‚Ä¶,2014-08-15 22:59,-2.499189233,17.59003763
548,548,RT @RT_com: #US nurses strike over insufficient #Ebola protections http://t.co/iCYbZDlQkv http://t.co/CYku6t0gVU,2014-08-03 17:06,-4.039165356,18.79164049
549,549,Mali reports 2 new #Ebola deaths in capital http://t.co/okubSNH7VM http://t.co/KrnPmFptjW,2014-09-13 17:18,-2.931505169,25.17028054
550,550,RT @GSK: ‚ÄòThe fight against #Ebola needs big pharma on board‚Äô @wellcometrust article in @FT: http://t.co/Nt9n5qB9ZU (subscription req.),2014-08-19 21:53,-6.458457202,18.9183428
551,551,@morrislaw he is with the #Ebola Czar,2014-09-03 11:42,-8.004624397,21.68501037
552,552,"\""@AJENews: Dozens placed in quarantine in Mali after a 25-year-old nurse dies from #Ebola  http://t.co/JnqC2uoSRT\"",""\""@AJENews: Dozens placed in quarantine in Mali after a 25-year-old nurse dies from #Ebola  http://t.co/JnqC2uoSRT\"",""Twitter for Android",2014-08-31 10:05,-2.747461065,15.59475992
553,553,"So actually, the government keeping serums under wraps is pretty similar to the current #Ebola outbreak.",2014-09-29 2:35,-6.642978513,23.01059141
554,554,RT @RT_com: #US nurses strike over insufficient #Ebola protections http://t.co/iCYbZDlQkv http://t.co/CYku6t0gVU,2014-08-08 5:44,-2.461438413,23.63555205
555,555,Unsafe burial practices are a major cause of new #Ebola cases in Sierra Leone. This week\'s #EbolaBigIdea is SAFE BURIALS SAVE LIVES,2014-09-11 10:24,-6.509772746,22.06931868
556,556,RT @RT_com: #US nurses strike over insufficient #Ebola protections http://t.co/iCYbZDlQkv http://t.co/CYku6t0gVU,2014-09-20 18:41,-3.347290406,21.59262971
557,557,üòπüòπüòπüòπ #Ebola scared tf out of the little boy üôàüôàüôÄüôÄüôÄüòøüòø https://t.co/QDpmIfN82f,2014-08-11 8:17,-3.781691516,18.80807518
558,558,St Vincent carnival preparations will not be affected by #Ebola | Caribbean News Now http://t.co/dcxGrALtnB via @caribnewsnow,2014-09-22 13:19,-5.298859353,21.09458053
559,559,Ebola False Flag Conspiracy FULLY Exposed! Complete Compilation: http://t.co/mCuxqM2fKn #ebola #false #flag #new #world #order #NWO,2014-09-05 9:19,-6.431663769,26.17543557
560,560,RT @ChannelNewsAsia: New Zealand police rule out presence of #Ebola in one of three vials found in mailboxes http://t.co/vV7uxDOlBz http://‚Ä¶,2014-08-29 8:21,-5.611548813,20.55723773
561,561,RT @Barbi_Twins: Hendry Co defends #monkey breeding lab negligence including #Ebola-Typical&gt;govt protects biz over bodies @JVM @ALDF http:/‚Ä¶,2014-08-12 4:10,-2.270090337,20.71834748
562,562,Joining us in Cape Town for #ASLM2014 this month? Special sessions on #Ebola and many other public health priorities http://t.co/uoVLbi3Gu2,2014-09-26 7:27,-5.905909851,23.22358327
563,563,RT @SusanWojcicki: Google matches $2 for every $1 donated in the fight against Ebola. Join the fight! #Ebola http://t.co/B8DLzqFLv4),2014-08-03 21:37,-6.322244723,23.48919839
564,564,RT @Barbi_Twins: Hendry Co defends #monkey breeding lab negligence including #Ebola-Typical&gt;govt protects biz over bodies @JVM @ALDF http:/‚Ä¶,2014-09-02 4:21,-6.074236785,20.23392915
565,565,RT @Barbi_Twins: Hendry Co defends #monkey breeding lab negligence including #Ebola-Typical&gt;govt protects biz over bodies @JVM @ALDF http:/‚Ä¶,2014-09-02 17:23,-4.874196933,21.11294237
566,566,"RT @ColumbiaSIPA: China needs to spend more to combat #Ebola in Africa, writes @prabhjotsinghNY: @USATODAY http://t.co/Fp5TYkOPsq",2014-09-04 1:02,-2.013592764,22.00801776
567,567,Could you walk thru an #Ebola ward w/o catching the virus?This new video game could teach you how.http://t.co/NdCRIWvb4y @nprGlobalHealth,2014-08-30 21:31,-2.644273429,21.75461055
568,568,"There are a number of conspiracy theories in W. Africa about #Ebola,  says @hirondelleus. Fear is hard to fight. http://t.co/NQpKXGeCy0",2014-08-11 15:32,-3.924969696,19.73604005
569,569,"RT @RT_com: #Ebola death toll surpasses 5,000 - WHO http://t.co/vdsIIjJoQE http://t.co/NvufkGGuCm",2014-08-30 6:33,-1.221440758,20.26796038
570,570,"There are a number of conspiracy theories in W. Africa about #Ebola,  says @hirondelleus. And fear is hard to fight. http://t.co/8gCIxyHx4H",2014-08-15 17:55,-5.285411796,23.88066338
571,571,#Ebola is in #Florida  RT PLEASE THANKS! #florida is monitoring 9 people for #ebola in #florida! http://t.co/HmI3GzKD5q,2014-09-13 23:53,-2.390023252,23.58963489
572,572,RT @ndnstyl: @JamiaStarheart @milesjreed Profit based HealthCare allowed #Ebola to threaten an entire lineage,2014-09-23 2:33,-4.216747743,22.17600528
